Id,NAME,ADDRESS,CITY,STATE,ZIP,LAT,LON,PHONE,REVENUE,UTILIZATION
69176529-fd1f-3b3f-abce-a0a3626769eb,MOUNT AUBURN HOSPITAL,330 MOUNT AUBURN STREET,CAMBRIDGE,MA,02138,42.375967,-71.118275,6174923500,645.8,5
5e765f2b-e908-3888-9fc7-df2cb87beb58,STURDY MEMORIAL HOSPITAL,211 PARK STREET,ATTLEBORO,MA,02703,41.931653,-71.294503,5082225200,387.48,3
f1fbcbfb-fcfa-3bd2-b7f4-df20f1b3c3a4,LAWRENCE GENERAL HOSPITAL,ONE GENERAL STREET,LAWRENCE,MA,01842,42.700273,-71.161357,9786834000,129.16,1
e002090d-4e92-300e-b41e-7d1f21dee4c6,CAMBRIDGE HEALTH ALLIANCE,1493 CAMBRIDGE STREET,CAMBRIDGE,MA,02138,42.375967,-71.118275,6176652300,387.48,3
49318f80-bd8b-3fc7-a096-ac43088b0c12,COOLEY DICKINSON HOSPITAL INC THE,30 LOCUST STREET,NORTHAMPTON,MA,01060,42.327044,-72.67463000000002,4135822000,129.16,1
8b58cdd1-3d79-3126-8fe0-da2c54d6805c,CARNEY HOSPITAL,2100 DORCHESTER AVENUE,BOSTON,MA,02124,42.33196,-71.020173,6175062000,258.32,2
4bdaa4c2-c664-3089-aee2-7137abbad27f,HARRINGTON MEMORIAL HOSPITAL-1,100 SOUTH STREET,SOUTHBRIDGE,MA,01550,42.059669,-72.03404,5087659771,258.32,2
ecc51621-0af3-3b35-ac3e-8b1e34022e92,SAINT ANNE'S HOSPITAL,795 MIDDLE STREET,FALL RIVER,MA,02721,41.725351,-71.094162,5086745600,516.64,4
5d4b9df1-93ae-3bc9-b680-03249990e558,HOLYOKE MEDICAL CENTER,575 BEECH STREET,HOLYOKE,MA,01040,42.211656,-72.642448,4135342500,387.48,3
37b4d73f-652d-3033-a16e-d97b9e8b4cda,ANNA JAQUES HOSPITAL,25 HIGHLAND AVENUE,NEWBURYPORT,MA,01950,42.812141,-70.886646,9784631000,129.16,1
5844ad77-f653-3c2b-b7dd-e97576ab3b03,BAYSTATE WING HOSPITAL AND MEDICAL CENTERS,40 WRIGHT STREET,PALMER,MA,01069,42.187794,-72.30846899999997,4132837651,129.16,1
37c0de84-bcaf-3624-82bf-a89b2ac441b8,BEVERLY HOSPITAL CORPORATION,85 HERRICK STREET,BEVERLY,MA,01915,42.556659,-70.84496,9789223000,258.32,2
4861d01f-019c-3dac-a153-8334e50919f9,NORTH SHORE MEDICAL CENTER -,81 HIGHLAND AVENUE,SALEM,MA,01970,42.50128,-70.897502,9787411215,1033.28,8
a0b6ec0c-e587-3b2a-bf9f-248849f29ee5,ST ELIZABETH'S MEDICAL CENTER,736 CAMBRIDGE STREET,BRIGHTON,MA,02135,42.33196,-71.020173,6177893000,258.32,2
4f3a530e-a2f7-3de0-9a09-c0a70a9ab894,BERKSHIRE MEDICAL CENTER INC - 1,725 NORTH STREET,PITTSFIELD,MA,01201,42.452045,-73.26054,4134472000,258.32,2
f71ce1a9-cca7-3295-9a1e-c88ac3479b6f,MARLBOROUGH HOSPITAL,157 UNION STREET,MARLBOROUGH,MA,01752,42.349617,-71.547214,5084815000,129.16,1
c44f361c-2efb-3050-8f97-0354a12e2920,SIGNATURE HEALTHCARE BROCKTON HOSPITAL,680 CENTER STREET,BROCKTON,MA,02302,42.082543,-71.024638,5089417000,516.64,4
b1ddf812-1fdd-3adf-b1d5-32cc8bd07ebb,BETH ISRAEL DEACONESS HOSPITAL - PLYMOUTH,275 SANDWICH STREET,PLYMOUTH,MA,02360,41.897892,-70.62403,5087462000,258.32,2
b0e04623-b02c-3f8b-92ea-943fc4db60da,LOWELL GENERAL HOSPITAL,295 VARNUM AVENUE,LOWELL,MA,01854,42.638893,-71.32210699999997,9789376000,387.48,3
ebc3f5c4-6700-34af-8323-85621c313726,NOBLE HOSPITAL,115 WEST SILVER STREET,WESTFIELD,MA,01085,42.138838,-72.755911,4135682811,129.16,1
fd328395-ab1d-35c6-a2d0-d05a9a79cf11,MERCY MEDICAL CTR,271 CAREW STREET,SPRINGFIELD,MA,01104,42.115454,-72.539978,4137489000,129.16,1
d692e283-0833-3201-8e55-4f868a9c0736,HALLMARK HEALTH SYSTEM,585 LEBANON STREET,MELROSE,MA,02176,42.455723,-71.05901899999998,7819793000,645.8,5
d78e84ec-30aa-3bba-a33a-f29a3a454662,MASSACHUSETTS GENERAL HOSPITAL,55 FRUIT STREET,BOSTON,MA,02114,42.33196,-71.020173,6177262000,129.16,1
8ad64ecf-c817-3753-bee7-006a8e662e06,MORTON HOSPITAL,88 WASHINGTON STREET,TAUNTON,MA,02780,41.903323,-71.094984,5088287000,258.32,2
60457c13-adb2-3415-82c5-86ab5dab5f93,BAYSTATE MEDICAL CENTER,759 CHESTNUT STREET,SPRINGFIELD,MA,01199,42.115454,-72.539978,4137940000,129.16,1
a9f20dc1-5147-3789-bcef-bbecb41c5983,HOLY FAMILY HOSPITAL,70 EAST STREET,METHUEN,MA,01844,42.742751,-71.178588,9786870156,258.32,2
7fb56531-86bd-3e4a-8619-4df9942da309,BETH ISRAEL DEACONESS HOSPITAL - NEEDHAM,148 CHESTNUT STREET,NEEDHAM,MA,02494,42.281593,-71.242414,7814533002,258.32,2
03347b4d-994e-302b-848b-58019a4e274d,EMERSON HOSPITAL -,133 OLD ROAD TO 9 ACRE CORNER,W CONCORD,MA,01742,42.269478,-71.807783,9783691400,129.16,1
cb6a50e0-af76-3758-99ad-3200ede03fff,BETH ISRAEL DEACONESS MEDICAL CENTER,330 BROOKLINE AVENUE,BOSTON,MA,02215,42.33196,-71.020173,6176677000,258.32,2
24cb4eab-6166-3530-bddc-a5a8a14a4fc1,MILFORD REGIONAL MEDICAL CENTER,14 PROSPECT STREET,MILFORD,MA,01757,42.158692,-71.521419,5084731190,645.8,5
ac8356a5-78f8-3a63-8a1e-59e832fd54e7,NASHOBA VALLEY MEDICAL CENTER,200 GROTON ROAD,AYER,MA,01432,42.562221,-71.58484399999998,9787849000,129.16,1
db0acede-4abe-3c01-8d03-5c68a190d8c7,SOUTH SHORE HOSPITAL,55 FOGG ROAD,SOUTH WEYMOUTH,MA,02190,42.24158900000001,-71.082651,7813408000,387.48,3
3d10019f-c88e-3de5-9916-6107b9c0263d,NEWTON-WELLESLEY HOSPITAL,2014 WASHINGTON STREET,NEWTON,MA,02462,42.331876,-71.208402,6172436000,258.32,2
f4e7709c-02f6-37ca-aeea-8247d74e88e7,WINCHESTER HOSPITAL,41 HIGHLAND AVENUE,WINCHESTER,MA,01890,42.452752,-71.144319,7817299000,258.32,2
12c9daf5-a29c-36c9-ac55-28972463e566,BETH ISRAEL DEACONESS HOSPITAL-MILTON INC,199 REEDSDALE ROAD,MILTON,MA,02186,42.24158900000001,-71.082651,6176964600,258.32,2
27379046-608b-32f0-9df7-8c833cf5d11d,BRIGHAM AND WOMEN'S HOSPITAL,75 FRANCIS STREET,BOSTON,MA,02115,42.33196,-71.020173,6177325500,258.32,2
226098a2-6a40-3588-b5bb-db56c3a30a04,GOOD SAMARITAN MEDICAL CENTER,235 NORTH PEARL STREET,BROCKTON,MA,02301,42.082543,-71.024638,5084273000,258.32,2
b7175ab4-bde5-3848-891b-579bccb77c7c,TUFTS MEDICAL CENTER,800 WASHINGTON STREET,BOSTON,MA,02111,42.33196,-71.020173,6176365000,258.32,2
3bd5eda0-16da-3ba5-8500-4dfd6ae118b8,NORWOOD HOSPITAL,800 WASHINGTON STREET,NORWOOD,MA,02062,42.18736,-71.195955,5087721000,258.32,2
d5117822-5756-389d-9547-891a372d580f,FALMOUTH HOSPITAL,67 & 100 TER HEUN DRIVE,FALMOUTH,MA,02540,41.57072,-70.556682,5085485300,258.32,2
6f122869-a856-3d65-8db9-099bf4f5bbb8,LAHEY HOSPITAL & MEDICAL CENTER  BURLINGTON,41 & 45 MALL ROAD,BURLINGTON,MA,01803,42.503227,-71.201713,7817445100,1162.44,9
465de31f-3098-365c-af70-48a071e1f5aa,METROWEST MEDICAL CENTER,115 LINCOLN STREET,FRAMINGHAM,MA,01701,42.307905,-71.436196,5083831000,645.8,5
1eaf97fa-9de6-38de-a9c4-6efe5dc574be,ST VINCENT HOSPITAL,123 SUMMER STREET,WORCESTER,MA,01608,42.269478,-71.807783,5083635000,129.16,1
79e14b44-8026-3599-b8ac-14813879825e,PCP297,307 MILL ST,HOLLISTON,MA,01746-1041,42.195951,-71.45343000000001,508-429-1905,5812.199999999996,45
f0268df7-588d-3e55-bab9-e29862a3be00,PCP532,73 CENTRAL ST,WEST BOYLSTON,MA,01583-1418,42.369417,-71.785036,508-835-2271,13820.119999999988,107
7ae92f6b-21d5-3e24-8265-d69bd2b9b4ca,PCP856,43 PENNYWISE PATH,EDGARTOWN,MA,02539-7031,41.37295,-70.482349,508-627-7984,7491.279999999994,58
73261f58-9c5a-3dae-833a-92148d5b7072,PCP876,202 BURLINGTON RD,BEDFORD,MA,01730-1407,42.499295000000004,-71.281889,781-271-8811,3874.7999999999984,30
c71b657c-58b7-33bf-8637-c0e102faf337,PCP895,182 MAIN ST,WATERTOWN,MA,02472-4409,42.369451,-71.177925,617-564-0656,2841.5199999999995,22
7d1c9185-6194-3fca-8c56-1e2d5ac7ee71,PCP1221,234 RUSSELL ST,HADLEY,MA,01035-3534,42.356491,-72.568632,413-320-3644,8782.879999999994,68
2fc2b347-cb6b-3e5e-9755-c8d08692e526,PCP1309,533 MAIN ST,MELROSE,MA,02176-3858,42.455723,-71.05901899999999,781-526-0992,4262.279999999998,33
dd1f04b3-54cd-3ff0-96e3-a9aec2078301,PCP1444,5 E MAIN ST,MERRIMAC,MA,01860-2005,42.838603000000006,-71.011997,978-346-4450,10074.479999999992,78
180c8932-47f1-3bf1-9aed-12c9013c2286,PCP1498,840 MEMORIAL DR,CAMBRIDGE,MA,02139-3771,42.376043,-71.11868,617-492-7083,4003.959999999998,32
f6b3bda6-02ee-37cc-8c1f-8fa554e5577a,PCP1501,361 MASSACHUSETTS AVE,ARLINGTON,MA,02474-6719,42.418721999999995,-71.163912,781-363-1804,4262.279999999998,33
46d76f18-28be-3225-9d6c-8f9a424775eb,ACTIVE MOTION PHYSICAL THERAPY,414 MAIN ST,WAKEFIELD,MA,01880-3018,42.50436,-71.064061,781-245-0055,4778.919999999997,37
fb2bf7e7-4bba-3320-bfb4-6b1fc57a0670,PCP1702,1371 BEACON ST,BROOKLINE,MA,02446-4965,42.323853,-71.142003,617-232-2435,4003.959999999998,31
6bc7071d-f1ed-3d3c-8043-460286490ef7,PCP1919,1180 BEACON ST,BROOKLINE,MA,02446-3806,42.323853,-71.142003,617-519-1427,5037.239999999997,39
b81e45f5-1cbe-3464-bcea-2ced466c7213,PCP2164,1419 BEACON ST,BROOKLINE,MA,02446-4808,42.323853,-71.142003,617-834-2092,4003.959999999998,31
10fb096e-706f-3f84-af35-4bab399a8d11,PCP2370,61 ROSELAND ST,SOMERVILLE,MA,02143-3524,42.390445,-71.101033,617-354-1353,6070.519999999996,47
02da9e41-5656-33e0-be62-aff604c958d3,PCP2381,17 HENSHAW ST,BRIGHTON,MA,02135-2905,42.33196,-71.020173,617-363-99881,8137.079999999994,63
869ba21d-a974-3260-9752-4d1ba8d12f28,PCP2617,102 WESTLAND RD,WESTON,MA,02493-1341,42.360502000000004,-71.303433,781-894-8898,3874.7999999999984,30
ad2fae20-b77d-3f72-ae7e-54a123d7b159,PCP3134,71 RANSOM RD,FALMOUTH,MA,02540-1655,41.594939000000004,-70.599243,508-495-0795,8137.079999999994,63
b28ac5ba-f674-3915-907c-39e79ae30b87,PCP3449,2285 MASSACHUSETTS AVE,CAMBRIDGE,MA,02140-1260,42.376043,-71.11868,617-491-3888,1033.28,8
d7e1f7b8-5261-3ee6-9d13-3e47f57fa6c2,PCP3579,1318 BEACON ST,BROOKLINE,MA,02446-3793,42.323853,-71.142003,617-638-8853,4133.119999999998,32
b28c47f8-ccd8-35e9-86c5-ee4be2b00172,PCP3754,1093 BEACON ST,BROOKLINE,MA,02446-5649,42.323853,-71.142003,617-928-0427,4133.119999999998,32
41a07ac8-2bc7-36ed-b585-bb5a55882219,PCP3782,101 COMMERCE WAY,WOBURN,MA,01801-1007,42.488769,-71.154438,781-904-0005,1549.9200000000003,12
0de9633c-54dd-39cb-947c-8ab5ecdf93a2,PCP3874,2 SHAKER RD,SHIRLEY,MA,01464-2561,42.573654,-71.640986,978-425-6666,11753.55999999999,91
3d57481a-530e-33ab-9369-ae7dace0d2b0,PCP3966,300 W MAIN ST B,NORTHBOROUGH,MA,01532-2132,42.323342,-71.646236,508-723-6141,4133.119999999998,32
0739d099-2f29-3820-a0f6-776862b0b9ee,PCP4246,1 W FOSTER ST,MELROSE,MA,02176-3847,42.455723,-71.05901899999999,617-661-2965,4003.959999999998,31
829380ee-2794-3710-a790-d547b74c9d3d,PCP4431,250 HAMPTON ST,AUBURN,MA,01501-2584,42.198708,-71.846006,508-832-4101,3745.6399999999985,29
ad3a23c5-ee9b-361d-96ee-244364c9b63a,PCP4460,7 KIMBALL LN E,LYNNFIELD,MA,01940-2617,42.534146,-71.038333,978-290-7090,4520.599999999998,35
059cdf63-a616-3f61-be4d-410d0be0623a,PCP4608,1250 HANCOCK ST,QUINCY,MA,02169-4339,42.261006,-71.008988,617-471-2444,4262.279999999998,33
088678d4-c735-3fa9-a22c-40272e071498,PCP4830,531 KING ST,LITTLETON,MA,01460-1279,42.535931,-71.490569,781-718-1916,2066.5600000000004,16
9a66d253-fa81-3045-9df1-2844ad780dc0,PCP5060,112 MAIN ST,NORTHBOROUGH,MA,01532-1914,42.323342,-71.646236,508-393-72236,3616.4799999999987,28
e73f5da9-599e-3c0d-976f-ee2e4421f347,PCP5128,1176 MEMORIAL DR B,CHICOPEE,MA,01020-3958,42.175668,-72.572257,413-593-3101,9170.359999999993,71
d4fb7b1c-8423-3477-961f-7298f92f6b94,PCP5229,ONE BROOKWOOD RD,HOLYOKE,MA,01040-9510,42.211656,-72.642448,413-533-0001,8524.559999999994,66
09488bd8-69f9-36f8-aba6-9387f59168af,PCP6315,77 MACY ST,AMESBURY,MA,01913-4128,42.851284,-70.955837,978-792-4400,6587.159999999995,51
93c97d3b-076f-3314-a816-9b870b039697,PCP6334,7 KENT ST,BROOKLINE,MA,02445-7975,42.323853,-71.142003,617-730-4344,4262.279999999998,33
ce0dc702-7298-363c-bef0-46dc8eee1f6c,PCP6365,27 FIELDS POND RD,WESTON,MA,02493-1904,42.360502000000004,-71.303433,781-894-2177,4520.599999999998,35
29e2af56-1d4e-3d79-b2cc-900f14ce52bc,PCP6405,65 HARRISON AVE,BOSTON,MA,02111-1924,42.338551,-71.018253,617-350-7823,4133.119999999998,32
48f9895c-222b-3082-ab26-0b5220b07ab4,PCP6451,201 PARK AVE,WEST SPRINGFIELD,MA,01089-3366,42.125451,-72.649734,413-259-7437,4391.439999999998,34
f03b043d-4fed-3072-bf46-1e8ee93dadab,PCP6482,95 STATE RD,VINEYARD HAVEN,MA,02568-5531,41.457484,-70.605097,508-693-2383,6328.839999999996,49
1840aee8-887d-3b36-b622-15692b0c7be3,PCP6767,123 DWIGHT RD,LONGMEADOW,MA,01106-1764,42.047565000000006,-72.57113000000001,413-567-2350,9041.199999999993,70
10a9d347-0146-3fbf-b74d-8f085f1bc461,PCP6927,71 MAIN ST,WESTMINSTER,MA,01473-1472,42.5546,-71.90544,978-855-0645,2195.7200000000003,17
4f21098b-1db1-3492-b9e0-b16f6f7514b1,PCP6977,65 CENTRAL ST,GEORGETOWN,MA,01833-2425,42.726188,-70.983328,508-633-9300,7749.599999999994,60
9ede8777-9442-3a51-945d-8ccee45acff6,PCP7238,381 LIBERTY ST,HANSON,MA,02341-1166,42.050239000000005,-70.867359,781-294-4577,12528.51999999999,97
973e7384-d05b-32ad-a8cc-c39191ee9150,PCP7483,152 N ST,PITTSFILED,MA,01201,42.452045,-73.26054,413-443-8480,18082.399999999983,140
a2013427-b43d-37b7-89ff-31c2dd48fdf5,PCP7900,5 ELM ST,DANVERS,MA,01923-2859,42.574174,-70.95051600000001,978-697-6025,4133.119999999998,32
e986c2c4-30e8-321a-aa17-dc8e34612ff7,PCP8038,1850 BEACON ST,BROOKLINE,MA,02445-1939,42.323853,-71.142003,617-505-5006,5812.199999999996,45
ac6b14d9-9488-35e0-8d18-df819ae50059,PCP8251,48 N ST,NEW BEDFORD,MA,02740-6688,41.661303000000004,-70.937913,508-717-9860,2454.04,19
a0123c36-2436-3609-a5eb-3c3857ed711d,PCP8367,12 CORSER ST,HOLYOKE,MA,01040-2275,42.211656,-72.642448,413-887-7827,3874.7999999999984,30
6129179a-8705-372a-b425-9dc187f49ad9,PCP8391,23 MAIN ST,WATERTOWN,MA,02472-4403,42.369451,-71.177925,781-237-2778,2454.04,19
28b427de-bbb5-3b6d-981a-b882eff234f3,PCP8590,26 S PROSPECT ST,AMHERST,MA,01002-2362,42.363534,-72.50729100000001,413-256-2600,4391.439999999998,34
98c716c1-1951-39a3-8c5e-fd57ac194208,PCP8861,378 WASHINGTON ST,SOUTH ATTLEBORO,MA,02703-5917,41.931653,-71.294503,508-761-5034,2841.5199999999995,22
32836213-4ac7-3021-aad8-6383f3ced351,PCP9022,1 HOLLYWOOD DR,GRAFTON,MA,01536-1614,42.209151,-71.683644,508-839-3616,8007.919999999994,63
65a74939-6441-32c0-bd3e-00b951c968e1,PCP9047,584 HIGH ST,DEDHAM,MA,02026-1807,42.246871999999996,-71.179462,781-471-4338,8653.719999999994,67
c4e60bf3-2144-36d1-8204-4247073f3370,PCP9065,32 BAKER ST,FOXBORO,MA,02035-1910,42.064024,-71.248401,508-930-6335,3745.6399999999985,29
95534a3f-dc48-3a8a-8ef8-bb5f95814f22,PCP9263,165 OLD KINGS HWY,ORLEANS,MA,02653,41.76935,-69.969034,508-240-3445,4262.279999999998,33
555e0658-1f41-3f63-9ca4-a82e087a0cf0,PCP9377,21 MARKET ST,IPSWICH,MA,01938-2240,42.695981,-70.83564799999999,978-356-3375,1549.9200000000003,12
dc4a0b6e-a5e3-3bf8-ab67-3cc89500d31c,PCP9413,1 OLDE N RD,CHELMSFORD,MA,01824-1453,42.597055,-71.3697,978-455-7023,774.9599999999999,6
d6695482-6857-3a6a-9264-97a8a0147afd,PCP9682,70 HIGH ST,ROCKPORT,MA,01966-2183,42.656952000000004,-70.60463,978-546-6102,3874.7999999999984,30
502a2ddb-e54a-3b43-9ad9-8103221c44d6,PCP9755,7 BARON WAY,LITTLETON,MA,01460-1122,42.535931,-71.490569,978-580-1342,2454.04,19
e960b1c8-2ce4-3e17-92ba-a638b744aaae,PRO REHAB INC PC,278 BROADWAY ST,LOWELL,MA,01854-4121,42.63898,-71.321141,978-452-6633,8007.919999999994,62
bf5b8173-2d02-342a-b46e-f7814724d0c0,PCP9942,39 GREEN ST,MILTON,MA,02186-2318,42.241557,-71.082432,617-361-1169,516.64,4
18783b14-3c4b-3fdf-8d9d-81dede166496,PCP10328,403 ROUTE 28,WEST YARMOUTH,MA,02673-4719,41.647227,-70.249978,508-790-41000,5037.239999999997,39
9387995b-14b9-3938-a37e-50ad5537d1e4,PCP10377,616 GREAT PLAIN AVE,NEEDHAM,MA,02492-3737,42.281593,-71.242414,781-444-1355,4003.959999999998,31
351386d4-1494-3930-be59-5f6ff2d24f43,PCP10498,53 LANGLEY RD,NEWTON CENTER,MA,02459-1919,42.331876,-71.208402,617-738-7668,3874.7999999999984,30
690848f5-6ca6-3f43-83a7-2e484506d500,PCP10692,200 SILVER ST,AGAWAM,MA,01001-3067,42.064731,-72.653477,413-786-7522,8007.919999999994,62
5e6f8a00-6072-30cd-988a-a615e9cc3b2f,PCP10780,1287 WILBUR AVE,SOMERSET,MA,02725-1816,41.738479,-71.165065,508-676-2140,9557.839999999993,75
036e3ac3-cf03-3aef-982e-cce75baed820,PCP10937,6 MAIN ST,CHARLTON,MA,01507-1354,42.133935,-71.968025,508-248-4318,4908.079999999997,38
ce9c2dda-23ac-35e3-9051-a71a04bfeb5a,PCP11113,465 NASHUA RD,DRACUT,MA,01826-2907,42.679722999999996,-71.30068,617-549-9711,4520.599999999998,35
036c2612-ef37-3468-9424-255570c84216,PCP11124,88 WHARF ST,MILTON,MA,02186-3433,42.241557,-71.082432,617-298-1608,7878.759999999994,61
438e9d44-1f8f-3c7f-807c-754e714c4e29,PCP11164,441 WASHINGTON AVE,CHELSEA,MA,02150-3679,42.396824,-71.031348,617-889-5528,21311.39999999998,165
0359e457-b383-3cd7-9abe-6a161ffc848a,PCP11511,120 ROUTE 28,WEST HARWICH,MA,02671-1220,41.693632,-70.105298,508-432-7002,2454.04,19
dcd2bf99-6b14-3f3e-bcef-5bf1bb1d3a45,PCP11621,22 SPEAR ST,QUINCY,MA,02169-4514,42.261006,-71.008988,617-642-4758,3745.6399999999985,29
1ec8b573-30d2-3ed7-aa18-3f3d438f1540,PCP11682,77 WARREN ST,BRIGHTON,MA,02135-3601,42.33196,-71.020173,617-953-4831,4262.279999999998,33
043c2193-7fbd-3a5c-ad68-275230f1f3d4,PCP11873,DOVER MEDICAL PROFESSIONAL BUILDING,DOVER,MA,02030-2374,42.234159999999996,-71.291167,508-785-2319,2195.7200000000003,17
7da64a9d-c5e6-3b94-9ef6-06ec8a3ef38e,PCP12012,400 HUNNEWELL ST,NEEDHAM,MA,02494-1300,42.281593,-71.242414,781-214-6261,3745.6399999999985,29
daa4c408-5fc5-32a8-881e-12181e8b8598,PCP12132,11 PROSPECT ST,SHERBORN,MA,01770-1302,42.231947,-71.372963,508-545-1843,2583.2,20
5f6db31e-3b32-38a0-918e-30bab4578915,PCP12160,9 CENTRE ST,DOVER,MA,02030-2203,42.234159999999996,-71.291167,978-369-2390,8266.239999999994,64
69b21029-68b9-3508-a3b8-27a29191a06a,PCP12310,1675 MASSACHUSETTS AVE,CAMBRIDGE,MA,02138-1872,42.376043,-71.11868,617-855-3926,3874.7999999999984,30
e9f5295e-8fcc-361e-9957-25be73726241,PCP12491,34 HAROLD ST,FLORENCE,MA,01062-1030,42.327044,-72.67463000000002,413-695-7084,3487.319999999999,27
cd2adec5-2598-3c48-88b5-75860fcdd58b,PCP13691,109 MASONIC HOME RD,CHARLTON,MA,01507-6301,42.133935,-71.968025,508-755-9051,2970.6799999999994,23
78d6ee98-f770-38f8-a1a4-47e15afd5a44,PCP13848,694 MAIN ST,HOLDEN,MA,01520-1862,42.355801,-71.862574,508-829-7191,2841.5199999999995,22
4c14bfa3-769e-33a1-8b0c-21316216ace5,PCP13861,100 KING ST,NORTHAMPTON,MA,01060-3243,42.327044,-72.67463000000001,413-584-2206,6328.839999999996,49
167b1547-f4f9-399b-b32f-2b4c49b62401,PCP13865,53 LANGLEY RD,NEWTON CENTER,MA,02459-1908,42.331876,-71.208402,617-244-0603,6328.839999999996,49
a2879c54-b45d-3af3-bdb9-f1a425583699,PCP14074,185 SCHOOL ST,MILTON,MA,02186-3513,42.241557,-71.082432,617-728-1410,10461.959999999992,81
588e03bd-91bc-3442-be9e-66c18ba36c0c,KHOURY CHIROPRACTC  INC.,116 MECHANIC ST,BELLINGHAM,MA,02019-1678,42.076682,-71.47449,508-966-3777,4003.959999999998,31
227cb42b-340b-3366-88fc-aa711721bf3f,PCP14668,872 MASSACHUSETTS AVE,CAMBRIDGE,MA,02139-3072,42.376043,-71.11868,617-620-8279,7749.599999999994,60
2c721b48-dccb-31b3-9c66-4c58456d0d69,PCP15082,97 FOREST PARK AVE,SPRINGFIELD,MA,01108-1631,42.115454,-72.539978,413-317-2358,5424.719999999997,42
21761c44-ee20-3e94-a931-fe843f4fbc2e,PCP15170,451 ANDOVER ST,NORTH ANDOVER,MA,01845-5079,42.673909,-71.091334,978-640-8989,3228.999999999999,25
5fb63ea3-32ab-39c9-8414-1b88434ac999,PCP15307,10 SPRING ST,MARBLEHEAD,MA,01945-3314,42.495629,-70.83582,781-639-0010,4262.279999999998,33
57d9994b-1a85-3810-a731-27c8842f3704,PCP15501,99 CHURCH ST,LOWELL,MA,01852-2621,42.63898,-71.321141,978-458-6282,10332.799999999992,80
e7908588-196c-3534-853a-18910e276286,PCP16203,530 GREAT RD,ACTON,MA,01720-3415,42.483953,-71.43849499999999,978-807-1164,5683.039999999996,44
de3353e2-f505-337a-afee-7b600bcd2cd8,PCP16288,94 PLEASANT ST,ARLINGTON,MA,02476-6535,42.418721999999995,-71.163912,781-223-5879,4391.439999999998,34
9c29064f-30e2-330d-ab6e-b608a57d1392,PCP16303,110 MAIN ST,NORTHAMPTON,MA,01060-3160,42.327044,-72.67463000000001,413-883-6996,9428.679999999993,73
1aff39b8-795f-3b7f-ba33-72648f3fa068,PCP16544,6 HASCALL ST,SHREWSBURY,MA,01545-2904,42.284766999999995,-71.714228,508-845-2778,4391.439999999998,34
29564e82-e7f8-3aeb-8d9c-1e3fd73ca340,PCP16674,1 W UNION ST,ASHLAND,MA,01721-1463,42.257754999999996,-71.473526,508-881-4443,3358.159999999999,26
46c3f041-1c3b-3f0f-8d06-464cf87c4bf3,PCP16709,3 PARSONS DR,SWAMPSCOTT,MA,01907-2919,42.468059000000004,-70.89126,781-596-1729,3874.7999999999984,30
f7e2dff6-41b5-381a-a073-a4e7224fdc8d,PCP16836,47 COLUMBUS AVE,SOMERVILLE,MA,02143-2018,42.390445,-71.101033,617-784-8163,10332.799999999992,80
6002ae67-ed4e-36a4-9e76-5eefc37255cb,PCP17024,755 GRATTAN ST,CHICOPEE,MA,01020-1238,42.175668,-72.572257,413-532-1040,12270.19999999999,95
c0916a22-b437-360d-840c-1b96a2411abd,PCP17172,945 BEDFORD ST,ABINGTON,MA,02351-1202,42.119966999999995,-70.957211,781-878-2340,4391.439999999998,34
d750c37d-55ef-3ddc-a612-90946d8ccc9a,PCP17339,1266 FURNACE BROOK PKWY,QUINCY,MA,02169-7482,42.261006,-71.008988,339-987-0767,5553.8799999999965,43
11c2822b-661b-3002-ac35-d27a01d56559,PCP17809,21 TORMAN ST,QUINCY,MA,02169-7564,42.261006,-71.008988,617-968-4059,7362.119999999994,57
f1ac94ab-bc9f-3a39-8b73-0dafc81b0ce5,PCP18294,19 CLEMENT ST,SHELBURNE FALLS,MA,01370-1022,42.609509,-72.74698000000001,413-625-2828,5424.719999999997,42
3e54a0c1-21ed-34ea-9696-e64a09626bcc,PCP18347,33 PILGRIM PATH,CARLISLE,MA,01741-1840,42.53662,-71.36183199999999,978-371-9797,3099.8399999999992,24
d4ce205d-2ce3-370f-baad-c64401aa3bb4,PCP18601,20 POND ST,MARBLEHEAD,MA,01945-3454,42.495629,-70.83582,781-631-8752,10203.639999999992,79
ebe1b159-9d15-3ca1-ba8d-8182b404d4b0,PCP18780,40 E MAIN ST,WARE,MA,01082-1331,42.275462,-72.280158,413-967-6681,4778.919999999997,37
807b4435-90e3-3a54-8d79-53faf57f6fa0,PCP19178,97 MIDWOOD DR,SWANSEA,MA,02777-3512,41.758163,-71.21418100000001,508-678-3774,7878.759999999994,61
bf89fd37-b82c-3eeb-b9af-712129f02de2,PCP19250,43 BROAD ST,WESTFIELD,MA,01085-2912,42.138838,-72.755911,413-562-2600,7878.759999999994,61
8526992b-f75c-3bb8-b003-ca6bc2ff9cf2,PCP19339,348 SHREWSBURY ST,WORCESTER,MA,01604-4616,42.269478,-71.807783,508-798-2421,5553.8799999999965,43
1f8bf1bc-2c07-3ea6-9782-0a8eb036ba4f,PCP19450,741 SALEM ST,LYNNFIELD,MA,01940-2344,42.534146,-71.038333,781-592-2225,5683.039999999996,44
e1a6de23-0601-3c5a-bdec-004495391cb8,PCP19698,45 N MAIN ST,FALL RIVER,MA,02720-2133,41.725351,-71.094162,508-676-1186,4778.919999999997,37
86f868e9-3325-3019-98d9-34ca2dc11f20,TANZMAN MASELLI AND ASSOCIATES PC,151 ASHLAND ST,N ADAMS,MA,01247-4522,42.675549,-73.11810799999998,413-662-2020,5166.399999999997,40
1607e74e-eb20-3211-9558-1005aac29c94,PCP19836,1 PLEASANT ST,MAYNARD,MA,01754-1360,42.425955,-71.45625600000001,978-897-8276,6845.479999999995,53
e9d22f2d-5203-3a66-bd42-2ce7875f6edc,PCP19870,11 CHESTNUT ST,ANDOVER,MA,01810-3724,42.648044,-71.161751,978-684-5096,7620.439999999994,59
3edc66a0-ea15-3321-9eb8-d3ea253bd1d0,PCP19925,64 COUNTY RD,IPSWICH,MA,01938-2309,42.695981,-70.83564799999999,978-356-3979,2841.5199999999995,22
2a07609e-277f-3ecf-b827-c3c4028cc223,PCP20163,263 CONCORD AVE,CAMBRIDGE,MA,02138-1336,42.376043,-71.11868,781-259-1139,3358.159999999999,26
772ee193-bb9f-30eb-9939-21e86c8e4da5,PCP20565,137 MAGAZINE ST,CAMBRIDGE,MA,02139-4711,42.376043,-71.11868,617-354-0806,3874.7999999999984,30
481c475b-f180-398d-a84e-31bfecad08f3,PCP20576,39 W PLAIN ST,WAYLAND,MA,01778-4409,42.360427,-71.361099,508-651-3887,7620.439999999994,59
e9b653b7-132d-35b8-93b9-fd7e9fd28b63,PCP20782,446 MOODY ST,WALTHAM,MA,02453-0415,42.388921,-71.24226800000001,781-899-3200,6199.679999999996,48
91da9782-027f-3fe3-8413-e37ed7a6734d,PCP21107,415 BOSTON TPKE,SHREWSBURY,MA,01545-3446,42.284766999999995,-71.714228,508-320-0232,3874.7999999999984,30
43ffaa09-80df-3fed-a263-024150ede443,PCP21226,296 N MAIN ST,EAST LONGMEADOW,MA,01028-1878,42.062378,-72.498111,413-206-8349,2324.88,18
758a1ad6-34bd-3fb6-9be2-731adad221a2,PCP21497,21 ELIOT ST,NATICK,MA,01760-6085,42.284822,-71.348811,774-217-0221,9041.199999999993,70
fcc5fa8d-2335-3637-943e-5fcd7b273917,UNION CHIROPRACTIC INC,323 BOSTON POST RD,SUDBURY,MA,01776-3022,42.383367,-71.42107,978-443-4344,6199.679999999996,48
a369fdd9-db24-3a43-9c8b-9b1679b55fc5,PCP21971,601 NEWTON ST,SOUTH HADLEY,MA,01075-2066,42.256208,-72.58103,413-534-7200,2583.2,20
94d9a785-a590-30fd-b4b0-fc7bddccd2c9,PCP21973,875 MASS AVE,CAMBRIDGE,MA,02139-3015,42.376043,-71.11868,617-864-5560,7103.799999999995,56
4fd66406-3438-3953-9644-caef76160bac,PCP22021,211 COCHITUATE RD,FRAMINGHAM,MA,01701-4673,42.307905,-71.436196,508-380-8680,4908.079999999997,38
45fbe90d-10f7-39f4-9f84-2100c302faf9,PCP22338,500 SALEM ST,WILMINGTON,MA,01887-1200,42.564646999999994,-71.164516,978-988-6240,10461.959999999992,81
40e7a912-f999-33a2-a49c-d3d2995d006c,PCP22879,825 BEACON ST,NEWTON CENTRE,MA,02459-1834,42.331876,-71.208402,617-678-0204,3099.8399999999992,24
b5224693-0819-3f63-9e94-ab96794d5ccc,PCP23079,FAMILY CONSULTANTS,SAGAMORE BEACH,MA,02562,41.782888,-70.5321,508-833-3800,5553.8799999999965,43
b08d2ff9-6036-3c87-b003-6cfda96c3c89,BEHAVIORAL HEALTH AFFILIATES  LLC,84 HIGH ST,MEDFORD,MA,02155-3844,42.423844,-71.10923100000001,781-393-0009,3874.7999999999984,30
c0388410-92ac-3f24-9bf7-8015960436e3,WILLIAM H LANGFIELD JR OD PC,598 COUNTY ST,SOMERSET,MA,02726-4204,41.738479,-71.165065,508-676-8167,3616.4799999999987,28
78a11f16-e161-3dfa-91fa-16af7109cea0,PCP23885,37 EDGERTON DR,NO FALMOUTH,MA,02556-2821,41.601508,-70.639317,508-563-3003,8007.919999999994,62
6c62aa8d-4c23-355a-a76c-1a3db1d1d0c7,PCP24094,150 FEARING ST,AMHERST,MA,01002-1942,42.363534,-72.50729100000001,413-345-5148,8137.079999999994,63
591ffe05-d411-3512-b7a4-68cb50cab161,PCP24532,172 MIDDLESEX AVE,WILMINGTON,MA,01887-2737,42.564646999999994,-71.164516,978-658-4432,6587.159999999995,51
ea4ac0af-e1d9-36c9-b4ec-ec31024335d8,JAY L. COHEN  MD  PC,464 HILLSIDE AVE,NEEDHAM,MA,02494-1228,42.281593,-71.242414,781-449-3588,4262.279999999998,33
279b2a85-ab64-3dec-90df-fbca8b479db5,PCP25692,48 CHERRY ST,WENHAM,MA,01984-1313,42.600633,-70.883303,978-473-6078,9299.519999999993,72
b3abd026-7e38-369d-837d-26d8ef20688d,PCP25722,236 HIGHLAND AVE,SOMERVILLE,MA,02143-1495,42.390445,-71.101033,617-666-4400,4778.919999999997,37
87150be3-c9fd-369a-af45-52493f8451df,PCP26028,531 SUMMER ST,BARRE,MA,01005-9589,42.418848,-72.10659799999999,413-237-5665,4778.919999999997,37
c993e4ef-271d-3af8-a75a-86c20f41d641,PCP26070,433 W ST,AMHERST,MA,01002,42.363534,-72.50729100000001,413-253-3211,6845.479999999995,53
d37c9ec2-6718-3aa8-bd22-90824397a079,PCP26122,11 GROVE ST,HOPKINTON,MA,01748-2595,42.224096,-71.54048900000001,508-435-3066,1033.28,8
ce5885ec-441e-3c4e-8d37-49a648032d3b,PCP26525,84 JERUSALEM RD,COHASSET,MA,02025-1412,42.262428,-70.79888299999999,781-236-2094,6845.479999999995,53
7fb56fd2-71ad-336a-9204-57765bd1e5d4,PCP26624,425 N RD,HAMPDEN,MA,01036-9535,42.071188,-72.41771800000001,413-566-8503,4003.959999999998,31
504c29d0-6f98-3282-a3fe-962df55f7808,PCP26696,505 NASHUA RD,DRACUT,MA,01826-1929,42.679722999999996,-71.30068,978-674-0271,4003.959999999998,31
2ef61b04-b50b-33a7-8d6b-26258cd58a6e,PCP26769,385 SOUTHBRIDGE ST,AUBURN,MA,01501-2498,42.198708,-71.846006,508-729-2200,7878.759999999994,61
9f771fe7-4577-3034-a17d-a692f35931a6,PCP27202,1200 CONVERSE ST,LONGMEADOW,MA,01106-1760,42.047565000000006,-72.57113000000001,413-567-0708,4649.7599999999975,36
1055cb51-3d14-3737-b4a8-0203cd752ac9,PCP27216,20 LONG MEADOW RD,LINCOLN,MA,01773-4810,42.425506,-71.310812,781-259-3434,2712.3599999999997,21
fedeff02-fcd0-3c21-a73e-d0d11a998ba4,PCP27454,PO BOX,HAMILTON,MA,01936-0296,42.626222999999996,-70.85723,978-468-3056,4133.119999999998,32
4344ea9b-3b15-37a4-9964-c630f7542817,PCP27609,85 CONSTITUTION LN,DANVERS,MA,01923-3630,42.574174,-70.95051600000001,978-774-5510,4908.079999999997,39
e06bd055-ade6-3128-a009-bfc61d1bc3bd,PCP27822,78 MIDDLE ST,FAIRHAVEN,MA,02719-3050,41.633619,-70.871306,508-992-2194,4649.7599999999975,36
b34ef270-b933-3be6-9dc0-8bc3819b7db8,PCP27881,77 E MERRIMACK ST,LOWELL,MA,01852-1900,42.63898,-71.321141,978-452-37117,3616.4799999999987,28
717bd95a-c706-3226-ba67-c66eac8e3ae5,PCP27936,115 MILL ST,BELMONT,MA,02478-1064,42.395317,-71.180284,617-855-3348,3745.6399999999985,29
af3c8657-15b8-3fee-b656-2ea1f1cb61ef,PCP28562,112 S GREAT RD,LINCOLN,MA,01773-4700,42.425506,-71.310812,781-259-8122,5812.199999999996,45
feb7bab1-f121-357d-ae80-969798e2655c,PCP28820,1863 BEACON ST,BROOKLINE,MA,02445-4256,42.323853,-71.142003,617-738-2900,7878.759999999994,61
ad88ea68-1b6a-322b-9f8b-62dc31195ee1,PCP28938,28 GREEN ST,NEWBURY,MA,01951-1721,42.770406,-70.872417,978-465-0959,5166.399999999997,40
a3e9a940-4b33-3f1b-9d52-49ee05a9ae46,PCP29110,200 LOCKLAND AVE,FRAMINGHAM,MA,01701-7931,42.307905,-71.436196,508-872-9442,3487.319999999999,27
8e65bfae-f627-32e8-bce0-b44f7130befe,PCP29121,10 LONGWOOD DR,WESTWOOD,MA,02090-1123,42.219645,-71.216768,781-329-4433,3616.4799999999987,28
af8a70b8-1900-33f7-91a0-350f1f59518e,PCP29134,10 CENTRAL ST,WEST SPRINGFIELD,MA,01089-2742,42.125451,-72.649734,413-746-3932,5683.039999999996,44
d9f1cef1-9753-3fd4-b31e-2fb0baf0b0a1,PCP29149,813 WILLIAMS ST,LONGMEADOW,MA,01106-2052,42.047565000000006,-72.57113000000001,413-567-2340,4003.959999999998,31
751be19f-90e3-3838-a5e4-dd777953ffca,PCP29267,283 LOWELL ST,LYNNFIELD,MA,01940-1135,42.534146,-71.038333,781-334-4005,3487.319999999999,27
02be0e59-461b-39b8-80da-64686bc34408,PCP29291,240 CONCORD AVE,CAMBRIDGE,MA,02138-1337,42.376043,-71.11868,617-492-5050,3616.4799999999987,28
b9699c26-0dce-3e2c-a10e-ca690efc6721,PCP29382,1266 FURNANCE BROOK PKWAY,QUINCY,MA,02169-4758,42.261006,-71.008988,671-479-3853,4133.119999999998,32
fdc73f71-fd8d-3d29-90fc-c34a9d010a23,PCP29500,23 WATER ST,HOLLISTON,MA,01746-2376,42.195951,-71.45343000000001,508-429-5133,1808.2400000000005,14
585ccce5-aa28-30b3-9494-fe92005dced3,PCP29519,40 S ST,MARBLEHEAD,MA,01945-3274,42.495629,-70.83582,,5683.039999999996,44
fd88c467-7ce6-3272-bfd7-e445150e5dbf,PCP29581,96 RUMFORD AVE,MANSFIELD,MA,02048-2117,42.017302,-71.21641,508-947-1755,2583.2,20
4ed706ff-0933-348d-9a14-6121280d9db1,PCP29620,46 SUFFIELD ST,AGAWAM,MA,01001-1753,42.064731,-72.653477,413-786-3701,4262.279999999998,33
0b7ad8b0-feb2-33a9-94c4-aadaf4a1022c,PCP29876,4238 WASHINGTON ST,ROSLINDALE,MA,02131-2517,42.33196,-71.020173,617-971-8650,18728.199999999983,145
778bf46e-b503-3429-a95f-41abc264cda7,PCP29989,59 CODDINGTON ST,QUINCY,MA,02169-4510,42.261006,-71.008988,617-472-3125,4520.599999999998,35
f70f5e5a-322f-35d4-9c92-12cf60083025,PCP30005,1121 WASHINGTON ST,WEST NEWTON,MA,02465-2149,42.331876,-71.208402,617-527-1981,4133.119999999998,32
848d9da5-f5e5-38bb-adeb-a3978950e346,BRUCE A KASTER MD PC,60 KENDRICK ST,NEEDHAM,MA,02494-2726,42.281593,-71.242414,617-964-8200,4003.959999999998,31
02c59aef-a75f-33f2-a161-25b01d9a5bc4,CROSSROADS HEALTH GROUP  P.C.,35 TURKEY HILL RD,BELCHERTOWN,MA,01007-9032,42.27901,-72.400468,413-323-1115,2712.3599999999997,21
ff76282f-7968-39c7-82f9-2d86c93990a6,PCP30512,10 RICHARDS AVE,PAXTON,MA,01612-1120,42.311693,-71.940282,508-757-0376,1679.0800000000004,13
3aa3a744-7d82-38fc-a8b8-87a4f1ab78de,PCP30550,1 PROSPECTOR RD,BILLERICA,MA,01821-3046,42.559673,-71.260947,978-667-8977,3358.159999999999,26
73886aa9-1c32-3274-bbd9-f0d0d77711e7,PCP30636,745 FALMOUTH RD,HYANNIS,MA,02601-2316,41.647227,-70.249978,508-771-3130,6845.479999999995,53
d9a443bc-edb6-34e0-b482-a468e5ce9b0c,PCP30679,460 HILLSIDE AVE D,NEEDHAM,MA,02494-1279,42.281593,-71.242414,781-254-1092,4649.7599999999975,36
ac06e0ac-ff61-30aa-9a9d-7856c2a6495c,PCP30726,162 COBBLE LANE,SHEFFIELD,MA,01257-0274,42.10365,-73.359887,413-229-3634,7232.959999999995,56
6f7c32fb-ae48-3de0-9aaa-2e50b09abde9,PCP31323,1010 WALTHAM ST,LEXINGTON,MA,02421-8044,42.445221999999994,-71.23001500000001,781-863-9660,5166.399999999997,40
5b1a1bab-ff17-3eab-82db-4fa03f8a3b1a,PCP31338,12 MARKET SQ,AMESBURY,MA,01913-2442,42.851284,-70.955837,978-388-0799,4391.439999999998,34
5ff8a939-3418-3d7a-a4ec-ee55177e937e,PCP31555,12 MECHANIC ST,FOXBORO,MA,02035-2075,42.064024,-71.248401,508-543-4108,7749.599999999994,60
83993a10-3ada-3037-92f5-1cacf52c0c93,PCP31564,115 MILL ST,BELMONT,MA,02478-1064,42.395317,-71.180284,617-855-2824,5037.239999999997,39
0517fca3-9416-3b31-a5b0-4921fe5bf34b,PCP31575,2 CTR ST,GROVELAND,MA,01834-1001,42.7539,-71.015935,978-914-7733,10461.959999999992,81
825d989b-752b-327e-a103-33079b0091c7,PCP32108,17 WHISTLESTOP MALL,ROCKPORT,MA,01966-1441,42.656952000000004,-70.60463,978-546-8440,4262.279999999998,33
ca26b0dc-755e-3d69-a923-4114bd84cb08,PCP32216,360 MASS AVE,ARLINGTON,MA,02474,42.418721999999995,-71.163912,781-316-1809,4262.279999999998,33
4ffdf970-07db-3fd5-9246-a6c3626c1cb4,PCP32327,475 FURNACE ST,MARSHFIELD,MA,02050-2309,42.115139,-70.71033100000001,781-834-9585,3099.8399999999992,24
e7be2bea-4a1b-3bac-9874-3b149652461a,PCP32467,3 OAKDALE LN,LINCOLN,MA,01773-1710,42.425506,-71.310812,781-259-9911,4133.119999999998,32
a09d2eae-2e94-3eb2-998c-225e928f8177,PCP32772,35 ADELLE CIRCUIT,WORCESTER,MA,01607-1601,42.269478,-71.807783,508-791-8100,6716.319999999995,52
5585b8a7-cdd9-3b8a-b78a-7aaa076a11aa,PCP33018,10 LANGLEY RD,NEWTON CENTER,MA,02459-1917,42.331876,-71.208402,617-243-0004,2583.2,20
b1516ff8-952b-3f90-a485-e43e29cbf469,PCP33041,14 MAIN ST,SOUTHBORO,MA,01772-1614,42.272062,-71.522795,508-787-9713,3745.6399999999985,29
d70e4d56-753f-3c43-b222-59b74e018fd2,PCP33054,505 MIDDLESEX TPKE,BILLERICA,MA,01821-3584,42.559673,-71.260947,978-663-7077,9945.319999999992,77
23ae9af5-8904-3b84-9ce1-61b0c59646c2,PCP33126,3193 CRANBERRY HWY,E WAREHAM,MA,02538-4707,41.793699,-70.638745,508-759-3843,5037.239999999997,39
97066a41-4fd5-3d4e-b382-a978fb20a5d5,PCP33234,198 COLUMBIA RD,HANOVER,MA,02339-2380,42.122956,-70.85631,781-829-9300,4262.279999999998,34
61fd4377-6a04-351c-a08c-82c332fbdef7,PCP33263,224 PARK ST,STONEHAM,MA,02180-2758,42.474208000000004,-71.097665,781-438-8407,645.8,5
bb8c7fc3-4b76-3dec-a393-93f3fea083ee,PCP33465,142 MAIN ST,GROTON,MA,01450-4267,42.61176,-71.565269,978-448-3300,5295.559999999997,41
16da6240-9126-382d-8b6f-fe13a4895ba9,PCP33618,1200 CONVERSE ST,LONGMEADOW,MA,01106-2074,42.047565000000006,-72.57113000000001,413-567-1955,3745.6399999999985,29
eab2e908-4cf6-3482-82ac-1166d601e868,PCP33743,409 POND ST,BRAINTREE,MA,02184-6800,42.205416,-71.00216800000003,781-848-9978,6845.479999999995,53
d1af8327-fe86-3aab-b9af-8d3443f72995,PCP34031,62 MAIN ST,UPTON,MA,01568-1611,42.176526,-71.603588,508-529-2700,6199.679999999996,48
8fbdc477-d05c-3d67-96f1-4fbf1b08102d,KAREN HOLMES PHYSICAL THERAPY  LLC,191 ELM ST,SALISBURY,MA,01952-1814,42.844794,-70.841499,978-499-1870,3228.999999999999,25
bcd693ad-a126-38ea-997f-e60cc7c95518,PCP34137,4 STONY BROOK RD,ARLINGTON,MA,02476-8019,42.418721999999995,-71.163912,617-818-2159,2970.6799999999994,23
33145183-be4b-3f49-809e-05a81cce7ecd,PCP34313,52 CENTRAL ST,GARDNER,MA,01440-1662,42.584206,-71.988737,978-632-5722,7749.599999999994,60
479d8764-9f18-300e-8695-57c43e37cf4a,PCP34751,1170 MAIN ST,W BARNSTABLE,MA,02668-1142,41.662727,-70.357208,508-737-2701,5424.719999999997,42
834ddb09-7859-33f5-82f7-3bab6772acd2,PCP34863,1599 ORLEANS RD,HARWICH,MA,02645-2147,41.696512,-70.070113,508-432-5008,7232.959999999995,56
61368e92-097b-3d41-a24a-6cc878f00ae1,PCP34914,9 CENTRAL ST,LOWELL,MA,01852-1930,42.63898,-71.321141,978-459-0141,4003.959999999998,31
d3a1a143-6c5c-38fb-bfb5-fb60d2fd1198,PCP34941,817 MERRIMACK ST,LOWELL,MA,01854-3548,42.63898,-71.321141,978-937-0500,3099.8399999999992,24
31de0e39-9682-38e8-8141-57854071efca,PCP35738,26 TRAPELO RD,BELMONT,MA,02478-4457,42.395317,-71.180284,617-484-3956,9428.679999999993,73
f5ad3535-8419-39b9-9421-0ee7bc3b26b2,GREATER MILFORD NEUROLOGY  LLC,54 HOPEDALE ST,HOPEDALE,MA,01747-1700,42.123007,-71.53140400000001,508-473-4323,10332.799999999992,80
ae4a7e33-3d01-3494-9465-28d1f847ebd3,PCP36546,272 CHAUNCY ST,MANSFIELD,MA,02048-1257,42.017302,-71.21641,508-339-3338,3745.6399999999985,29
baad40f6-f6e8-3555-be27-8fbba66128ca,PCP36602,1 BROOKLINE PL,BROOKLINE,MA,02445-7277,42.323853,-71.142003,617-278-0272,5553.8799999999965,43
9a29c81a-8036-3cab-a1a9-bcc489911c38,PCP36628,24 ONEIDA RD,WINCHESTER,MA,01890-3434,42.452752000000004,-71.144319,781-729-7945,4262.279999999998,34
124dc16c-7456-33df-8231-852ada43be15,PCP36785,2 COURTHOUSE LN,CHELMSFORD,MA,01824-1715,42.597055,-71.3697,978-453-0900,8653.719999999994,67
3ad44914-0d76-3fe5-a307-dcfd45d2b957,PCP36795,350 BEDFORD ST,LAKEVILLE,MA,02347-2127,41.834412,-70.957166,508-946-4777,8524.559999999994,66
d89a8f94-0755-3988-a0d4-64bb37fd705c,PCP36966,5 STATE ST,SHELBURNE FLS,MA,01370-1036,42.609509,-72.74698000000002,413-625-8494,11624.39999999999,90
984fe9f6-06e9-3d7f-826d-c9ee0b3755d0,PCP36988,871 VARNUM AVE,LOWELL,MA,01854-1932,42.63898,-71.321141,978-459-4544,10849.439999999991,84
fa2fddb2-58af-3e52-b9b0-e42c35bfe84a,PCP37066,563 MAIN ST,BOLTON,MA,01740-1300,42.439941,-71.601879,978-779-5539,8912.039999999994,69
86410dd4-11b2-33d4-b13b-2eef40106246,PCP37099,466 TRAPELO RD,BELMONT,MA,02478-1421,42.395317,-71.180284,617-489-3790,4133.119999999998,32
122f0348-0144-39ca-a07c-e753c7a6dba2,PCP37108,1563 FALL RIVER AVE,SEEKONK,MA,02771-3736,41.839797999999995,-71.31804699999999,508-336-6680,5037.239999999997,39
502dd65a-e826-3bca-89bb-448b81ddbc15,PCP37168,39 PLYMOUTH ST,HOLBROOK,MA,02343-1510,42.140346,-70.997861,781-767-4207,14595.079999999987,113
cff1d721-67dc-312b-9050-a08d2adda58c,PCP37502,573 NORTHAMPTON ST,HOLYOKE,MA,01040-9515,42.211656,-72.642448,413-588-1513,2841.5199999999995,22
cd1de71e-98d1-3cba-8fd2-2b20331ff03f,PCP37542,589 DARTMOUTH ST,S DARTMOUTH,MA,02748-2516,41.661303,-70.937913,508-997-5636,4391.439999999998,34
4471b385-a75d-35a1-838a-30a0909de267,PCP37644,136 GARDNER ST,HAMILTON,MA,01936,42.626222999999996,-70.85723,978-969-3744,3616.4799999999987,28
f79dcff2-4144-315e-8552-e2a8de442c79,PCP37647,88 MAPLE ST,WALTHAM,MA,02453-4471,42.388921,-71.24226800000001,781-891-8388,6716.319999999995,52
be51af35-d7aa-3bed-a268-0c8edb90ee25,PCP37727,825 WASHINGTON ST,NORWOOD,MA,02062-3449,42.187364,-71.195971,781-769-0500,3099.8399999999992,24
159f077a-8598-357d-99e1-0b32412cd0fd,PCP38793,100 HIGHLAND ST,MILTON,MA,02186-3877,42.241557,-71.082432,617-698-6105,9557.839999999993,74
36ed10a2-6bfb-32fb-8426-eba5689a5f28,PCP39494,112 MCGRATH HWY,QUINCY,MA,02169-4607,42.261006,-71.008988,617-472-4220,2066.5600000000004,16
405c1042-e54b-3ff3-a5f8-d6a0dcf03518,AUBURN PODIATRY LLP,492 WASHINGTON ST,AUBURN,MA,01501-5708,42.198708,-71.846006,508-832-6075,1808.2400000000005,14
830037f6-93ec-346b-b051-87d94c39dae9,PCP40406,3 RUTHVEN AVE,WORCESTER,MA,01609,42.269478,-71.807783,508-854-4868,3874.7999999999984,30
6f50f2fa-e60e-36de-b145-0152295e8095,PCP40559,60 WASHINGTON ST,SALEM,MA,01970-3516,42.499248,-70.898204,978-741-7897,7362.119999999994,57
c7d7c1c3-4bf9-3a1c-90a3-ff1c748e6a88,MELROSE-WAKEFIELD BEHAVORIAL HEALTH CENTER P C,800 W CUMMINGS PARK,WOBURN,MA,01801-6554,42.488769,-71.154438,781-224-0611,3745.6399999999985,29
82345720-9dae-3fb1-831e-71305f2cd38f,PCP41885,1 PORTER SQ,CAMBRIDGE,MA,02140-1431,42.376043,-71.11868,617-864-5094,8653.719999999994,68
5f3b6a8a-99a4-3564-bc7f-186b79d040db,TOTAL HEALTH CARE  INC.,2 REEDSDALE RD,MILTON,MA,02186-3324,42.241557,-71.082432,617-698-0715,14465.919999999987,112
db6e0cea-70b9-3cab-b8fe-1bd1b4b649c3,PCP42340,69 MALDEN ST,REVERE,MA,02151-2234,42.421005,-70.99036,781-284-3200,4908.079999999997,38
672fc5ad-b8cd-31f7-b774-eb926e7a7a35,DENTAL SURGEONS OF FALL RIVER PC,180 ELSBREE ST,FALL RIVER,MA,02720-7212,41.725351,-71.094162,508-672-1069,8395.399999999994,65
04b5e4fe-8298-3f9b-857f-718a515be12b,CONCORD AND LEXINGTON ORAL SURGERY ASSOCIATES LLC,801 MAIN ST,CONCORD,MA,01742-3313,42.462911,-71.364496,978-369-2525,3874.7999999999984,30
11d998de-3497-3acb-83f0-5eaf3aa97c88,PCP42930,872 MASSACHUSETTS AVE,CAMBRIDGE,MA,02139-3072,42.376043,-71.11868,617-661-1688,3745.6399999999985,29
2898db6a-62da-399d-b1fe-ecca7d2bc1f8,NORTHERN ESSEX ORAL SURGERY ASSOC INC,390 WATER ST,HAVERHILL,MA,01830-6476,42.782945,-71.087436,978-374-7451,6845.479999999995,53
737ae7be-959b-3c7f-b998-de3c90996c38,PCP43589,103 GARLAND ST,EVERETT,MA,02149-5066,42.405938,-71.054649,617-389-6270,13432.639999999989,104
fd47cf46-1315-35a2-aede-bf7c8b900145,FIRESTONE CHIROPRACTIC AND WELLNESS LLC,400 W CUMMINGS PARK,WOBURN,MA,01801-6519,42.488769,-71.154438,781-281-1086,4908.079999999997,38
026ac617-d544-3fa1-bdb8-7edfdf503b1a,LABYRINTH PSYCHOLOGICAL SERVICES  P.C.,800 MAIN ST,HOLDEN,MA,01520-1838,42.355801,-71.862574,508-797-7110,8782.879999999994,68
37a78ec3-505f-361f-b6fa-aaafed77cd01,PCP43815,14 LOON HILL RD,DRACUT,MA,01826-4067,42.679722999999996,-71.30068,978-934-94442,3745.6399999999985,29
08a94aac-7e11-3a09-a3e4-c2869ee66eee,PCP44465,23 PINECREST BEACH DR,EAST FALMOUTH,MA,02536-4723,41.57072,-70.556682,508-527-6001,8266.239999999994,64
411735bd-f830-3011-a59f-c3f84a1f042e,PCP44598,30 HARDWICK RD,PETERSHAM,MA,01366-9701,42.459222,-72.216335,978-724-3424,4649.7599999999975,36
86ed5cdc-c6d1-3308-b3a7-8173855c4fc1,PCP44830,89 MAIN ST,MEDWAY,MA,02053-1818,42.156203000000005,-71.43034499999999,508-533-3777,9299.519999999993,72
f022c152-0035-385a-bf96-307024125878,PCP44850,1309 BEACON ST,BROOKLINE,MA,02446-5252,42.323853,-71.142003,617-515-4059,3487.319999999999,27
d0c6730b-3e94-38aa-9f5d-7d963adbe0c8,PCP45269,1796 BEACON ST,BROOKLINE,MA,02445-2069,42.323853,-71.142003,617-566-9024,8524.559999999994,66
a30bb886-a567-3d82-a3ab-8bf1f45bc55a,PCP45409,249 AYER RD,HARVARD,MA,01451-1133,42.504256,-71.588513,978-296-3957,4133.119999999998,32
a79311e5-97bc-3165-ac58-2542676c16ef,LIVE FREE PHYSICAL THERAPY  INC.,493 MAIN ST,GROTON,MA,01450-4254,42.61176,-71.565269,978-449-9772,11236.919999999991,87
c9c9bbf0-c1c0-30fe-94d3-a908a24ebb48,PCP46837,61 MAIN ST,BLACKSTONE,MA,01504-2215,42.039991,-71.53240600000001,508-752-4709,6974.639999999995,54
4fc15b92-8d23-34f9-80f5-010f1c0e1bdf,PCP47408,165 NESHOBE RD,WABAN,MA,02468-1348,42.331876,-71.208402,617-558-1245,3874.7999999999984,30
0ba0d119-a4c6-3561-94a5-eaccfd6f62f1,EAST SIDE COUNSELING SERVICES  LLC,1311 BEDFORD ST,FALL RIVER,MA,02723-2637,41.725351,-71.094162,508-567-1477,8653.719999999994,67
8bb318af-fcfa-390d-9b1a-01b8d1b9512f,PCP47535,100 WARREN ST,BOSTON,MA,02119-3209,42.338551,-71.018253,617-987-5994,3616.4799999999987,28
78fdac6c-2d81-3ec5-a4ee-c17b22988a32,PCP47638,28 GREEN ST,NEWBURY,MA,01951-1721,42.770406,-70.872417,978-499-2103,3745.6399999999985,29
69d66aa3-95bf-3e7d-90e5-76b914b17c0c,NEWTON WELLESLEY NEUROLOGY ASSOCIATES  P.C.,2000 WASHINGTON ST,NEWTON,MA,02462-1699,42.331876,-71.208402,617-969-1723,2970.6799999999994,23
57af70ba-946b-3109-89a8-82481c300705,COMPREHENSIVE PHYSICAL THERAPY  PC,1037 MAIN ST,LEICESTER,MA,01524-1313,42.238427,-71.91234,508-892-1335,14207.599999999988,110
f2a2d8c7-a446-34c2-b7a4-536d2608331e,PCP48058,25 MARKET ST,SWANSEA,MA,02777-3998,41.758163,-71.21418100000001,774-213-1460,4391.439999999998,34
227059b2-fe7b-306a-beda-3b7ca2754b06,PCP48097,5 SPRING ST,CHICOPEE,MA,01013-2610,42.175668,-72.572257,413-594-4747,4391.439999999998,34
08ea9944-dc3a-39c6-8d79-bdca0c94746e,SOUTHEAST REHABILITATION ASSOCIATES  P.C.,480 HAWTHORN ST,NORTH DARTMOUTH,MA,02747-3729,41.646686,-70.999158,774-202-1078,2712.3599999999997,21
a55c6a21-4d97-3005-997a-872786db1344,ORTHOPAEDIC AND SPORTS MEDICINE SPECIALISTS  INC.,231 SUTTON ST,NORTH ANDOVER,MA,01845-1620,42.673909,-71.091334,978-685-8059,8007.919999999994,62
b10ef267-a36b-3700-bb75-74f8873f51ed,KENDALL SQUARE THERAPEUTIC HEALTH CENTER  P.C.,15 STORY ST,CAMBRIDGE,MA,02138-4950,42.376043,-71.11868,617-441-0101,1549.9200000000003,12
1e5a9ce8-fc4b-3fa0-95ee-36c4e7a7b09c,PCP49333,83 S ST,WARE,MA,01082-1659,42.275462,-72.280158,413-967-5562,6587.159999999995,51
55006d34-266b-3642-8761-86c5e994aa30,PCP49388,3 ROLLINGWOOD DR,WORCESTER,MA,01609-1211,42.269478,-71.807783,508-756-1967,4391.439999999998,34
a0e3f669-d53f-3554-a7d5-144f422a342b,PERFORMANCE PHYSICAL THERAPY INC,99 4TH ST,CHELSEA,MA,02150-2336,42.396824,-71.031348,617-889-2500,15370.039999999986,119
cd713027-3ff6-30c7-a8c8-5ffb817e3fb0,PCP50779,1371 BEACON ST,BROOKLINE,MA,02446-4965,42.323853,-71.142003,617-506-9889,1291.6000000000001,10
3fe9027e-146b-34e0-a9a5-6c061465c7ba,PCP50921,114 MAIN ST,GLOUCESTER,MA,01930-5706,42.62885,-70.685875,978-223-3129,5295.559999999997,41
ca517cf5-bb77-3213-96be-e45060fc9989,PCP51368,3 ESSEX GREEN DR,PEABODY,MA,01960-2927,42.534279,-70.969782,978-317-0612,1808.2400000000005,14
cd74f406-0977-32fe-be9b-cc3bbd26c578,PCP51420,165 RT,ORLEANS,MA,02653-3267,41.76935,-69.969034,508-237-7496,1937.4000000000005,15
0f251010-e2c0-33ff-883c-4df454d49584,PCP51453,232 1ST ST,PITTSFIELD,MA,01201-4749,42.451840000000004,-73.260685,413-212-9529,6845.479999999995,54
04f553c5-5858-30a6-b318-f1e07a89c8bf,PCP51535,99 WALNUT ST,SAUGUS,MA,01906-1981,42.468432,-71.01394599999999,617-791-4805,3874.7999999999984,30
b8b67095-c4ea-3eee-9b55-27e3ae911b52,PCP51599,51 PERFORMANCE DR,WEYMOUTH,MA,02189-3141,42.206676,-70.94584499999998,617-726-8691,5037.239999999997,39
3099a047-30df-3b9c-a819-f57000db98f4,PCP51816,33 BARTLETT ST,LOWELL,MA,01852-1334,42.63898,-71.321141,978-452-7233,5037.239999999997,39
1c37499f-9bcb-3146-a0fe-7edfe568402b,PCP52732,1419 BEACON ST,BROOKLINE,MA,02446-4808,42.323853,-71.142003,857-260-6484,7491.279999999994,58
180c2c00-af70-3870-9489-f05269a36339,EYE CARE AND LASER SURGERY OF NEWTON-WELLESLEY,2000 WASHINGTON ST,NEWTON,MA,02462-1624,42.331876,-71.208402,617-796-3937,4391.439999999998,34
3bdd7318-5a9c-3ecf-ba3e-7163a602bdf4,PCP53831,638 ADAMSVILLE RD,WESTPORT,MA,02790-5031,41.579794,-71.081822,508-636-4769,1808.2400000000005,14
c25d89ff-e9d0-3326-9d50-3621c666b313,PCP53949,17 MAIN ST,HOPKINTON,MA,01748-3211,42.224096,-71.54048900000001,508-435-2225,4520.599999999998,35
680f92da-814f-32d5-8b20-714fe27263dd,PCP53962,1330 BEACON ST,BROOKLINE,MA,02446-3202,42.323853,-71.142003,617-738-0100,8524.559999999994,66
d86e15fb-290b-36d8-ad51-b32ceda12b77,PCP54507,15 MIDSTATE DR,AUBURN,MA,01501-1856,42.198708,-71.846006,774-239-2702,3874.7999999999984,30
84f858ae-39ce-3bd0-8685-9f7e98b8a03e,PCP55732,45 LYNMAN ST,WESTBORO,MA,01581,42.267441,-71.617492,617-501-5515,5166.399999999997,40
6ab74476-d3dd-3f9c-b828-0819b5e368a9,LOUIS KUCHNIR  MD  PC,1 MAPLE ST,MILFORD,MA,01757-5614,42.158691999999995,-71.521419,508-478-2610,3616.4799999999987,28
204eb5af-87cd-3122-952f-191337f99b1c,PCP57271,50 MEMORIAL DR,LEOMINSTER,MA,01453-2238,42.520876,-71.770611,978-534-1534,3616.4799999999987,28
73288f92-dc03-37c3-9020-b1a8ba81da0a,PCP57396,130 HIGH ST,UPTON,MA,01568-1576,42.176526,-71.603588,508-529-3050,6457.999999999995,50
e52013c2-006c-3a0c-ae92-5fb3dd048ba0,PCP57403,32 PARK ST,BELCHERTOWN,MA,01007-9590,42.27901,-72.400468,413-323-5200,4133.119999999998,32
52f1b5aa-bd07-3a12-83e7-fa5baaadbb9b,PCP57483,969 DALTON AVE,PITTSFIELD,MA,01201-2903,42.451840000000004,-73.260685,413-499-2419,7362.119999999994,57
36d9f9e8-5717-3628-bc57-32e2961b0da3,PCP57551,1351 MAIN ST,BROCKTON,MA,02301-7153,42.082543,-71.024638,508-586-3613,5037.239999999997,39
eadeb4fd-c28c-3933-b6d1-fc0ae5d4af2e,PCP57734,166 COLLEGE HWY,SOUTHAMPTON,MA,01073-0431,42.226949,-72.74158800000001,413-527-9903,3616.4799999999987,28
b0c10db6-0961-3327-98c1-ec76e3602c60,FITZGERALD AND THEOHARIDIS PC,241 STATION AVE,S YARMOUTH,MA,02664-1863,41.667083,-70.200793,508-398-6055,5424.719999999997,42
de32e817-c850-34b8-9bb1-229c9f0cb4c3,PCP58020,470 WASHINGTON ST,NORWOOD,MA,02062-2343,42.187364,-71.195971,781-255-0013,8007.919999999994,62
6909b0b6-1423-3aee-b9c9-c089fbfe26fb,PCP58043,236 MAIN ST,STONEHAM,MA,02180-1251,42.474208000000004,-71.097665,781-438-2252,6587.159999999995,51
214935b6-3ba3-31a9-9d96-56095ee9654a,PCP58532,403 HIGHLAND AVE,SOMERVILLE,MA,02144-2530,42.390445,-71.101033,617-429-4738,4133.119999999998,32
baef8bc3-fcab-375b-b413-35e9fc8f06eb,NEW BEDFORD INTERNAL MEDICINE AND GERIATRICS  LLC,726 COUNTY ST,NEW BEDFORD,MA,02740-5405,41.661303000000004,-70.937913,508-984-5671,5424.719999999997,42
a93cc620-5371-39b4-a4c7-85c8a56609a6,PEDIATRICS WEST PC,133 LITTLETON RD,WESTFORD,MA,01886-3198,42.585541,-71.44025,978-577-0437,3745.6399999999985,29
43ce418c-817d-3d11-ba62-91ad55cae08e,PCP59186,792 MAIN ST,MELROSE,MA,02176-2710,42.455723,-71.05901899999999,781-665-9066,4003.959999999998,31
57a4f22d-ee7b-30b0-9ac7-23ab9e72cab9,PCP59814,1 SPRINGFIELD ST,CHICOPEE,MA,01013-2672,42.175668,-72.572257,,4391.439999999998,34
bee99f4b-dbff-334b-ba02-f90f8e199aca,DERMATOLOGY OF CAPE COD  PC,37 EDGERTON DR,NO FALMOUTH,MA,02556-2821,41.601508,-70.639317,508-563-2550,6199.679999999996,48
b2872674-997c-30cd-862d-eeeb72a4a7bc,PCP60018,45 STERLING ST,WEST BOYLSTON,MA,01583-1200,42.369417,-71.785036,978-906-1753,2841.5199999999995,22
af697ac7-5112-3c05-9ea7-01e65d214259,PCP60041,23 WATER ST,HOLLISTON,MA,01746-2364,42.195951,-71.45343000000001,508-429-2128,11366.07999999999,88
edae9e47-1783-37d3-b970-b6c47325b490,PCP61844,1180 BEACON ST,BROOKLINE,MA,02446-3806,42.323853,-71.142003,617-232-7300,4778.919999999997,37
040a0487-3bd7-3dcf-bb33-7f11abff16d4,NEPONSET VALLEY ORAL AND MAXILLOFACIAL SURGERY ASSOCIATES  PC.,20 EASTBROOK RD,DEDHAM,MA,02026-2088,42.246871999999996,-71.179462,781-326-8080,5812.199999999996,45
f2a4daeb-4bf3-303e-9d97-fbfdee750d3c,PCP62247,154 COPELAND DR,MANSFIELD,MA,02048-1225,42.017302,-71.21641,508-339-1418,7232.959999999995,56
783421ae-905a-3082-ae86-cb958fffaa7c,GEMINI PHYSICAL THERAPY LLC,679 S MAIN ST,HAVERHILL,MA,01835-8721,42.782945,-71.087436,978-372-3211,4262.279999999998,34
66e57e95-78f4-38b9-bd2e-20fadbc2e34a,CHIROPRACTIC CARE CENTERS INC,503 ELECTRIC AVE,FITCHBURG,MA,01420-5371,42.601977000000005,-71.81586999999999,978-353-7716,258.32,2
5e73145b-f79c-3bb4-9c92-124f4204dc06,PCP62686,300 LYNNWAY,LYNN,MA,01901-1809,42.474862,-70.96218499999999,774-327-8878,5295.559999999997,41
443ba81a-59d6-35c8-ab98-f88f9d3a59a6,PCP63243,63 MASSACHUSETTS AVE,ARLINGTON,MA,02474-8612,42.418721999999995,-71.163912,781-648-2540,4908.079999999997,38
825c9254-2ca4-335c-8abf-b33dc19e796c,PCP63533,6 BARTLETT RD,WINTHROP,MA,02152-2913,42.375541,-70.970646,617-846-3502,4003.959999999998,31
3264ba36-c85e-38ca-b1ca-1bc0f0ef212f,PCP64078,21 ELIOT ST,NATICK,MA,01760-6085,42.284822,-71.348811,508-397-4210,6974.639999999995,54
88ce3362-6546-325f-a540-1b7c93040d54,PCP64772,563 MAIN ST,BOLTON,MA,01740-1300,42.439941,-71.601879,781-843-4499,7491.279999999994,58
7f568a78-1626-3652-8748-c1f22970e9ef,HAMPDEN PODIATRY ASSOCIATES,77 WINSOR ST,LUDLOW,MA,01056-3486,42.183577,-72.457812,413-589-7287,4908.079999999997,38
55cf4059-5e57-3442-8072-cf46084b1d2e,PCP64981,352 PARK ST,NORTH READING,MA,01864-2158,42.578222,-71.084398,978-664-9400,8007.919999999994,62
f5c2ed46-d994-33c7-bc9e-c723b8ad24a0,PCP65005,1 ORR SQUARE C,REVERE,MA,02151-3200,42.421005,-70.99036,781-289-2144,3487.319999999999,28
eb622180-121c-3c39-81ec-b32d1eea719d,KENNETH M REED MD PC,500 CONGRESS ST,QUINCY,MA,02169-0917,42.261006,-71.008988,617-472-6764,9945.319999999992,77
ee90394a-4b0a-36a5-b5a1-e35fe54d3a83,PROFORM PHYSICAL THERAPY  LLC,175 ELM ST,SALISBURY,MA,01952-1828,42.844794,-70.841499,508-717-7507,4262.279999999998,33
ff87949b-dd31-390a-8711-eefde19296fc,PCP65332,1415 BEACON ST,BROOKLINE,MA,02446-4812,42.323853,-71.142003,617-983-0076,4649.7599999999975,36
c0e5b5c1-06ff-3c39-b600-90de0f4fc39f,PCP65886,339 WASHINGTON ST,DEDHAM,MA,02026-1870,42.246871999999996,-71.179462,617-610-8829,645.8,5
c0094038-6272-32dc-bf16-e4e8e417098a,BURLINGTON OB-GYN ASSOC INC,101 CAMBRIDGE ST,BURLINGTON,MA,01803-3766,42.503227,-71.201713,781-272-4667,3874.7999999999984,30
185be925-7c80-39be-b4d8-246161e01541,NORTH SHORE PSYCHIATRIC ASSOCIATES INC,100 HIGHLAND AVE,SALEM,MA,01970-2702,42.499248,-70.898204,978-744-8686,8007.919999999994,62
5db9c918-9e4d-38bb-a94c-2c031fcb6fb0,CRABBE CHIROPRACTIC  INC,132 S MAIN ST,ACUSHNET,MA,02743-2772,41.718216999999996,-70.901151,508-998-2800,1937.4000000000005,15
61e5780f-a04f-3d6c-baca-b734ea80f00c,PCP66707,101 CLARK RD,BROOKLINE,MA,02445-5846,42.323853,-71.142003,617-277-1753,4908.079999999997,38
8f9540b9-ccaa-35bc-bae8-0e34d856f4ff,HARDY PHYSICAL THERAPY REHABILITATION SERVICES INC,112 MAIN ST,NORTHBOROUGH,MA,01532-1914,42.323342,-71.646236,508-393-7298,4649.7599999999975,36
8d8be980-e91c-3aa6-a10c-d2a598b6c5e7,PCP67111,900 ELM ST,WEST SPRINGFIELD,MA,01089-2665,42.125451,-72.649734,413-788-8900,6845.479999999995,53
dc5be6b6-9c5a-3cd2-a790-c034ae3855a7,PCP67268,92 MERRIMACK ST,LOWELL,MA,01852-1720,42.63898,-71.321141,978-441-0197,9299.519999999993,72
3708f11e-2f93-3ff3-ab72-99d0625c1cc2,NORTH SHORE NURSE PRACTITIONER ASSOCIATES LLC,85 CONSTITUTION LN,DANVERS,MA,01923-3694,42.574174,-70.95051600000001,978-750-0755,1808.2400000000005,14
04b0900a-2ae4-3360-b9a5-1b3eb2bdd8a2,PCP67456,140 N VALLEY RD,PELHAM,MA,01002-9766,42.371648,-72.412488,202-445-7271,12657.67999999999,98
c1414e2c-48df-3428-92a4-ac36114a2a45,ORTHOPEDIC AND SPORTS PHYSICAL THERAPY OF CAPE COD LLC,160 ROUTE 137,EAST HARWICH,MA,02645-1316,41.708597,-70.031856,774-237-0832,7620.439999999994,59
752b51ac-7cce-3e27-82ab-3e67a2e21b6b,PCP68488,140 PARK ST,ATTLEBORO,MA,02703-8048,41.931653000000004,-71.294503,508-226-8070,1937.4000000000005,15
77ce5075-fee8-333c-8505-2c32ead72e3d,PCP68574,17 ELM ST,BOXFORD,MA,01921-2321,42.683108000000004,-71.01833,978-887-6040,4520.599999999998,35
ff3a40a6-6fde-3c12-9eb1-3ebd11709ae3,PCP68637,1093 BEACON ST,BROOKLINE,MA,02446-5623,42.323853,-71.142003,617-232-3503,3616.4799999999987,28
58fe1815-1e8a-38ed-a91a-17d4ef18c8d8,PCP68975,259 MAIN ST,ASHLAND,MA,01721-2115,42.257754999999996,-71.473526,508-881-4368,3874.7999999999984,30
935fc47d-45de-380c-a42c-3f3cac84744f,PCP69056,947 ROUTE 6A,YARMOUTH PORT,MA,02675-2171,41.706920000000004,-70.221117,508-326-3668,3616.4799999999987,28
4a003d1d-d190-372a-a5e3-8828d4f3eca7,PCP69145,1 OLDE N RD,CHELMSFORD,MA,01824-1453,42.597055,-71.3697,978-710-6574,4133.119999999998,32
3b8f14f6-6cd2-3eab-bd83-efc2a977bb24,PCP69172,10 FISKE AVE,GREENFIELD,MA,01301-3277,42.614671,-72.597063,413-325-4563,5037.239999999997,39
55f15a5c-f9c2-31f4-9a7f-1c5f832db6b6,PCP69662,101 MAIN ST,MEDFORD,MA,02155-4530,42.423844,-71.10923100000001,781-396-8100,5812.199999999996,45
9f1e8d45-bb02-32cc-aecb-4b0190101e35,NEUROLOGY PARTNERS PC,76 PARK ST,ATTLEBORO,MA,02703-2335,41.931653000000004,-71.294503,508-431-2026,2066.5600000000004,16
b30d834a-4508-3c12-b2a8-de6275dcd2ad,WIEGANDT AND ASSOCIATES PC,8 LEWIS POINT RD,BUZZARDS BAY,MA,02532-5613,41.75495,-70.616158,508-759-5752,7491.279999999994,58
6284f6bf-2b43-3598-a286-5fd05631c360,PLYMOUTH BAY INTERNAL MEDICINE,45 RESNIK RD,PLYMOUTH,MA,02360-4883,41.897892,-70.62403,508-746-2696,5812.199999999996,45
8b607111-30ff-3014-bf43-3a9d61993538,CHAMPIONSHIP PHYSICAL THERAPY LLC,57 PUTNAM ST,WINTHROP,MA,02152-2902,42.375541,-70.970646,617-846-5609,8395.399999999994,66
5fb13e00-97fc-3a7c-be52-fd19e5e96d7c,PCP70933,103 MYRON ST,WEST SPRINFIELD,MA,01089-1598,42.125451,-72.649734,508-898-8650,3487.319999999999,27
b2c1f8da-797d-30bc-a6ce-ecb58ec1dcf4,ARCAND CHIROPRACTIC OFFICE P.C.,114 BROADWAY,RAYNHAM,MA,02767-1414,41.930477,-71.046214,508-824-0710,1937.4000000000005,15
252ab022-9f25-316c-b0fc-ccc5240c5a7b,DALY FOOT CARE  PC,253 SALEM ST,MALDEN,MA,02148-4118,42.42938,-71.058706,781-322-7716,6974.639999999995,54
6ded7902-c59d-3481-9657-b27ed0e33fc7,PCP71435,115 MILL ST,BELMONT,MA,02478-1048,42.395317,-71.180284,617-855-3186,5295.559999999997,41
8d8b7616-3259-3612-890e-966048f81fb9,PCP71850,330 BROOKLINE AVE,BOSTON,MA,02215-5400,42.338551,-71.018253,617-667-4766,7878.759999999994,61
f7d3a509-bca2-3b93-80b7-97ca6778a089,WEST BROOKFIELD FAMILY PRACTICE,46 N MAIN ST,W BROOKFIELD,MA,01585-1044,42.24188,-72.146863,508-867-8977,3874.7999999999984,30
eb202f89-722d-3e19-8085-e5cbfe96c5ba,PCP72131,30 GORHAM ST,LOWELL,MA,01852-2575,42.63898,-71.321141,978-452-4223,5683.039999999996,44
b4ee442b-fc35-30bc-8be0-0a62c5d7640c,PCP72216,69 SUMMER ST,HAVERHILL,MA,01830-5855,42.782945,-71.087436,978-835-8497,4778.919999999997,37
165cd7ef-c3e3-3ad0-9d30-3cc20a098cbd,PCP72229,115 MILL ST,BELMONT,MA,02478-1064,42.395317,-71.180284,617-855-3899,4133.119999999998,32
0bdf4a19-6491-3b38-8d17-459c379c9d5a,PCP72336,800 HINGHAM ST,ROCKLAND,MA,02370-1067,42.129251000000004,-70.908736,781-792-3500,6457.999999999995,50
c03afdc3-c4da-3d00-8916-e4fde08e187c,PCP72513,817 MERRIMACK ST,LOWELL,MA,01854-3548,42.63898,-71.321141,978-458-7510,1808.2400000000005,14
eb41a4ec-fbbe-336c-9987-cae575551845,PCP72673,700 WASHINGTON ST,DEDHAM,MA,02026-4427,42.246871999999996,-71.179462,781-329-8660,9170.359999999993,71
2c8bb256-f256-3a96-8166-500370fbcbcd,PCP72712,677 TIMPANY BLVD,GARDNER,MA,01440-3452,42.584206,-71.988737,978-669-4094,5166.399999999997,40
b2549b86-863d-3ce9-9500-d7a55db0948b,PCP72922,35 GREEN ST,MELROSE,MA,02176-2811,42.455723,-71.05901899999999,781-661-0101,6845.479999999995,53
8f2f8640-5218-347d-b033-b38eda1c225c,FAMILY EYE CARE CENTER AND OPTICAL GALLERY INC.,5 CORNERSTONE SQ,WESTFORD,MA,01886-1483,42.585541,-71.44025,978-692-1400,5941.359999999996,47
9b3c647e-19a8-3017-9980-cb3c0160f3d9,CHARLTON FAMILY PRACTICE,246 SOUTHBRIDGE RD,CHARLTEN,MA,01507-7251,42.097282,-72.05503399999998,508-248-4801,4391.439999999998,34
2d6e5156-b21f-3503-989b-77157d8ef69a,PCP74768,100 8TH ST,NEW BEDFORD,MA,02740-6026,41.661303000000004,-70.937913,508-735-1802,4003.959999999998,31
395fac80-d8f3-3ffd-b424-44e8efa9257d,FAMILY EYE CARE  INC.,177 MAIN ST,SPENCER,MA,01562-1711,42.247211,-71.991867,508-885-2219,7491.279999999994,58
e95b06ff-595e-3c87-b010-fef72ed3e357,PCP75555,77 WINSOR ST,LUDLOW,MA,01056-3470,42.183577,-72.457812,,3358.159999999999,26
acd28a8d-3d91-3791-93b3-7d57a4424192,LC HOLBROOK  INC.,49 PEARL ST,BROCKTON,MA,02301-2817,42.082543,-71.024638,508-580-9995,4649.7599999999975,36
b5a281d3-d83c-3131-b4e3-206e6e2d9bbc,ALLERGY AND ASTHMA SPECIALISTS  PC,9 VILLAGE SQ,CHELMSFORD,MA,01824-2712,42.597055,-71.3697,978-256-4531,3874.7999999999984,30
829ac47a-9b25-3643-9df8-6db22cb0d682,PCP77122,23 WARREN AVE,WOBURN,MA,01801-4979,42.488769,-71.154438,987-932-0649,4908.079999999997,38
f2fd3dd9-c924-33e8-bf5f-ad34316959a4,PCP77926,45 STERLING ST,WEST BOYLSTON,MA,01583-1268,42.369417,-71.785036,774-261-8530,3099.8399999999992,24
bd51dda6-36ae-3894-b334-aa5ce9b057c8,WOMEN'S HEALTH OF CENTRAL MA. PC,325 THOMPSON RD,WEBSTER,MA,01570-1504,42.047075,-71.845805,508-755-4851,1291.6000000000001,10
efbb2ad4-2957-379b-a6ba-2aee6d3552e5,PCP78198,759 FALMOUTH RD,MASHPEE,MA,02649-3371,41.617622999999995,-70.492713,508-477-8242,8395.399999999994,66
2dc7a6b2-bee6-3ae6-b3fe-4117382d73ee,PCP78624,56 MAIN ST,ASHBURNHAM,MA,01430-1242,42.648697,-71.919896,978-790-5789,7491.279999999994,58
7848e4ec-44a0-3d29-bb76-c0e10579a762,ALAN ROCKOFF  M.D  LLC,28 ANDOVER ST,ANDOVER,MA,01810-4888,42.648044,-71.161751,978-475-9230,4778.919999999997,37
fb28cf4c-955b-32c7-906e-4b9ad6f5678a,LC HOLBROOK  INC.,169 N FRANKLIN ST,HOLBROOK,MA,02343-1111,42.140346,-70.997861,781-767-5200,12915.999999999989,100
58f3b420-bd31-3b0a-9218-0179b7e160aa,PCP79900,100 CITY HALL PLZ,BOSTON,MA,02108-2105,42.338551,-71.018253,617-367-2020,11495.23999999999,89
4280a520-966f-3a69-8f11-b1cd1079f1a9,PCP80065,49 THURSTON ST,SOMERVILLE,MA,02145-3811,42.390445,-71.101033,857-928-6500,4262.279999999998,33
524c18ff-973f-312c-92b1-5794da94c565,PCP80177,923 ROUTE 6A,YARMOUTH PORT,MA,02675-2159,41.706920000000004,-70.221117,508-274-1067,8912.039999999994,69
96a4bbba-d12a-367e-b635-a7df9440999b,PCP80251,33 STATE RD,DARTMOUTH,MA,02747-3319,41.56651,-70.958229,508-996-4138,2066.5600000000004,16
73162ed1-25cc-3181-80a6-60e9310139c5,PCP80353,70E FALMOUTH HWY 6,EAST FALMOUTH,MA,02536-5960,41.57072,-70.556682,508-591-0077,3874.7999999999984,30
f4f12501-41cb-31cf-870b-ebc86d930490,PCP80545,8 LAUREL ST,WHITMAN,MA,02382-2436,42.078974,-70.93939,781-447-2691,129.16,1
f2eb2523-4309-3c73-8d49-c18b24facaeb,PCP80832,2 FARRAGUT RD,IPSWICH,MA,01938-1818,42.695981,-70.83564799999999,978-356-4900,6974.639999999995,54
aeda79cb-3b94-3c59-898e-2d0ac9cdecba,MARK H. ABENSOHN  M.D.  L.L.C.,266 MAIN ST,MEDFIELD,MA,02052-2018,42.184599,-71.305307,508-359-8141,1937.4000000000005,15
75bce424-82dd-3c8e-9a24-8bb2b2939174,PCP81055,180 SHIRLEY AVE,REVERE,MA,02151-3257,42.421005,-70.99036,781-284-5954,4003.959999999998,31
dd432573-88bf-3127-bbdc-0f03d81b5780,PCP81204,24 COURNOYER RD,WEST TISBURY,MA,02575,41.394406,-70.656447,508-693-1300,6845.479999999995,53
e8fb216f-ef0e-3667-afa5-a9b55fdcfafb,PCP82381,300 MT AUBURN ST,CAMBRIDGE,MA,02138-5600,42.376043,-71.11868,617-492-3400,3874.7999999999984,30
08a8eb50-654a-3acf-ac45-58c10823aa40,PCP82911,233 HARVARD ST,BROOKLINE,MA,02446-5017,42.323853,-71.142003,781-674-9124,4649.7599999999975,36
4c778d4c-6db0-3f0d-8169-6042d13eccb5,PCP83017,23 COLLEGE ST,SOUTH HADLEY,MA,01075-1414,42.256208,-72.58103,413-532-7647,3487.319999999999,27
961679fb-f4aa-32ef-ba4b-bb077bf57fe9,NEWTON WATERTOWN DERMATOLOGY ASSOC. PC,280 WASHINGTON ST,BRIGHTON,MA,02135-3511,42.33196,-71.020173,617-783-7100,8007.919999999994,62
7f7c08c8-1c39-3b26-bd34-5122a003dd91,PCP83180,107 FERRY ST,EVERETT,MA,02149-4940,42.405938,-71.054649,617-389-6951,4520.599999999998,35
4339cd67-e191-3810-a125-3e00c14ad9b2,PCP83308,21 WHITTLESEY RD,NEWTON,MA,02459-2621,42.331876,-71.208402,617-332-0032,8395.399999999994,65
ae8a14ef-d89f-3eac-b6ee-30e163f1c41f,HELLER EYECARE INC,162 MIDDLESEX AVE,WILMINGTON,MA,01887-2737,42.564646999999994,-71.164516,978-658-3713,5553.8799999999965,43
c0705928-cdea-325a-ab4f-e3dcd7f650ac,PCP86438,227 ADAMS RD,WILLIAMSTOWN,MA,01267-2932,42.695743,-73.22211800000001,,3745.6399999999985,29
c5929f74-cbed-3c12-8b1f-d58bdefe94d2,PCP86610,150 MAIN ST,READING,MA,01867-3970,42.535183,-71.105423,,5037.239999999997,39
9aab4d91-54fb-3743-915a-de41ad413ed8,PHYSICAL THERAPY AND FITNESS CENTER OF RAYNHAM  INC.,675 PARAMOUNT DR,RAYNHAM,MA,02767-5416,41.930477,-71.046214,508-828-1011,3487.319999999999,27
ba301273-7799-3ab0-a3dc-3a82f2976996,FAMILY PRACTICE GROUP PC,11 WATER ST,ARLINGTON,MA,02476-4812,42.418721999999995,-71.163912,781-648-9700,5812.199999999996,45
4541291a-e567-3605-bef4-f5b2bd337e89,ROBERT J OBRIEN JR MD AND ASSOC PC,955 MAIN ST,WINCHESTER,MA,01890-1974,42.452752000000004,-71.144319,781-729-4878,5166.399999999997,40
b515e214-69f5-30bd-b2be-f4a2731df80f,PLYMOUTH COUNTY FOR BEHAVIORAL HEALTH LLC,34 MAIN ST EXT,PLYMOUTH,MA,02360-8302,41.897892,-70.62403,508-830-0012,2324.88,18
406745b3-482d-3eb1-9e8b-c10f911980fd,AMERICAN HELP CENTERS  INC.,196 E MAIN ST,FALL RIVER,MA,02724-3323,41.725351,-71.094162,508-674-4357,3874.7999999999984,30
1f645c13-be73-3c42-9b77-e1257a5d9d41,PCP88418,272 MAIN ST,STONEHAM,MA,02180-3505,42.474208000000004,-71.097665,,4003.959999999998,31
909a0f76-d1bc-3354-a883-82d002a29123,LYNNFIELD PSYCHOLOGICAL ASSOCIATES  PC,180 MAIN ST,LYNNFIELD,MA,01940-2514,42.534146,-71.038333,781-334-2644,7878.759999999994,61
9dd6b488-2cc9-3383-a460-09a6523ce78c,WESTON PRIMARY CARE  PC,56 COLPITTS RD,WESTON,MA,02493-1568,42.360502000000004,-71.303433,781-891-0906,7620.439999999994,60
7b55b090-9478-3a40-8761-fd13452ae359,NORTHEAST SENIOR OPTIONS LLC,1 R NEWBURY ST,PEABODY,MA,01960-3816,42.534279,-70.969782,978-535-1606,6716.319999999995,52
0e70b7a4-3f06-37ca-99a7-90eb55f969a1,PCP90727,210 WINTER ST,WEYMOUYH,MA,02188-3302,42.206676,-70.94584499999998,,6587.159999999995,51
9ffe9a94-a8c2-3314-bf1a-e24bfe7ba23b,PCP90776,61 LINCOLN ST,FRAMINGHAM,MA,01702-8264,42.307905,-71.436196,,8782.879999999994,68
36e0f7c9-4ecf-3296-9caa-8ecba069659f,PCP91170,235 WALNUT ST,FRAMINGHAM,MA,01702-7592,42.307905,-71.436196,,2970.6799999999994,23
eba71c1e-212d-3fe8-9041-eafe8f3474a0,PCP91371,900 CUMMINGS CTR,BEVERLY,MA,01915-6183,42.556659,-70.84496,,4778.919999999997,37
f361eedf-8ff2-3500-8740-e7d121f9731d,MASS BAY SPINE AND SPORT PHYSICAL THERAPY  INC.,506 PLAIN ST,MARSHFIELD,MA,02050-2745,42.115139,-70.71033100000001,781-319-0024,2583.2,20
e0ba4ea4-4658-3465-8ed1-171d87ebf9d2,PCP92222,80 MECHANIC ST,ATHOL,MA,01331-2053,42.575924,-72.229618,978-249-7818,7491.279999999994,58
187674f4-8252-314f-a97c-d80acf51d977,PCP92449,2 ALLEN ST,HAMPDEN,MA,01036-9552,42.071188,-72.41771800000001,,4262.279999999998,33
87f6941d-90f6-3c1d-b443-4038458cf8d7,PLATINUM PHYSICAL THERAPY  INC.,15 W UNION ST,ASHLAND,MA,01721-1464,42.257754999999996,-71.473526,508-881-6750,6974.639999999995,54
04407555-4681-33b8-9b33-e0eb0d6e1849,ADVANCED EYE CENTERS INC,500 FAUNCE CORNER RD,N DARTMOUTH,MA,02747-1255,41.646686,-70.999158,508-717-0270,3874.7999999999984,30
2badf6cf-7a73-30c5-b32a-2803eee5d2a6,PCP93886,167 DWIGHT RD,LONGMEADOW,MA,01106-2177,42.047565000000006,-72.57113000000001,413-567-6790,4133.119999999998,32
7bc836f4-42a1-37ad-90f2-b71d0722aa5e,PCP94093,69 WILLARD ST,QUINCY,MA,02169-1228,42.261006,-71.008988,,3616.4799999999987,28
cb8410c4-c93e-3067-86b3-fa5ead300465,AFFILIATES IN FOOT CARE  PC,100 UNICORN PARK DR,WOBURN,MA,01801-3339,42.488769,-71.154438,781-979-0919,6328.839999999996,49
f9d686d4-0133-30a3-ab72-80c9e93921f4,PCP95496,169 N FRANKLIN ST,HOLBROOK,MA,02343-1111,42.140346,-70.997861,,9041.199999999993,70
7b1d1ef2-4b4e-34f5-8108-e4d8faf51964,PCP95615,15 CHESTNUT ST,PEABODY,MA,01960-5429,42.534279,-70.969782,,5424.719999999997,42
c0dab828-5db5-3e9f-8529-cf7dd1d1ed33,PCP95658,99 4TH ST,CHELSEA,MA,02150-2326,42.396824,-71.031348,,3874.7999999999984,30
483ca310-2bbc-3e6c-bee4-e4ed67210611,CAMBRIDGE OTOLARYNGOLOGY,300 MOUNT AUBURN ST,CAMBRIDGE,MA,02138-5665,42.376043,-71.11868,617-354-1010,4778.919999999997,37
7138b31f-5167-349c-950b-c3a73efb3e63,PCP96589,473 S ST W,RAYNHAM,MA,02767-5306,41.930477,-71.046214,,3745.6399999999985,29
cbf4f161-d84b-30d9-895d-249777d266c7,PCP96590,100 COMMERCIAL RD,LEOMINSTER,MA,01453-3333,42.520876,-71.770611,,4908.079999999997,38
b9b400f9-1c95-3d0e-b6e4-15d5d33304f9,PCP97541,94 N ELM ST,WESTFIELD,MA,01085-1641,42.138838,-72.755911,,4003.959999999998,31
c4f2e605-d695-34f4-ab72-79685fbf9a67,PCP98689,43 CUMMINS HWY,ROSLINDALE,MA,02131,42.33196,-71.020173,,2970.6799999999994,23
33a2154e-15b5-35b8-b571-83a1a46e9dce,PCP98782,575 S ST W,RAYNHAM,MA,02767-5305,41.930477,-71.046214,,7362.119999999994,57
5bcc920a-1aa0-3645-810b-1c73f448d14b,PCP100703,433 W ST,AMHERST,MA,01002-2936,42.363534,-72.50729100000001,413-570-0746,8137.079999999994,63
9265b9e0-9d1d-3b31-ba11-432886a3f892,PCP100846,555 MAIN ST,SHREWSBURY,MA,01545-2932,42.284766999999995,-71.714228,,4649.7599999999975,36
7517e2f9-f8ee-3767-8a0c-afc8899a7207,PCP101067,710 STOCKBRIDGE RD,LEE,MA,01238-9316,42.303174,-73.233924,413-243-0122,8007.919999999994,62
5181acd0-4c26-3172-9068-138966873eb6,PCP102671,22 W ST,MILLBURY,MA,01527-2622,42.192246000000004,-71.777649,,17824.079999999984,138
e55a9e25-912b-32de-b68b-eeca0fc9553d,PCP103582,599 MAIN ST,MALDEN,MA,02148-3920,42.42938,-71.058706,,3099.8399999999992,24
211513af-05dd-340e-a7d8-79cb8c958edb,PCP104079,95 TREMONT ST,DUXBURY,MA,02332-4732,42.044307,-70.70604499999999,,3616.4799999999987,28
b2d77e5b-c99b-331e-a47b-76504177b6aa,MT. AUBURN CARDIOLOGY ASSOCIATES  INC.,300 MOUNT AUBURN ST,CAMBRIDGE,MA,02138-5665,42.376043,-71.11868,617-497-1560,9041.199999999993,70
49576e6f-f875-3d69-89a7-1bd016f0b33a,PCP104516,171 MAIN ST,ASHLAND,MA,01721-1185,42.257754999999996,-71.473526,508-881-7766,5037.239999999997,39
1832b70f-c3fa-34c2-be72-cda87ae32067,PCP104708,546 SPRINGFIELD ST,FEEDING HILLS,MA,01030-2133,42.064731,-72.653477,,10849.439999999991,84
a700dc16-db10-3e81-9364-e51e488a9e60,TPB ENTERPRISES  INC,221 QUINCY AVE B,QUINCY,MA,02169-6754,42.261006,-71.008988,,5553.8799999999965,43
9098c4b0-6b32-35c8-8094-9adb8dce7390,PCP105118,121 NANTASKET AVE,HULL,MA,02045-3106,42.340233000000005,-70.883301,,4391.439999999998,34
7b1ba895-0a48-303f-981d-f41766fcaacc,PCP105182,78 MCKAY ST,BEVERLY,MA,01915-3031,42.556659,-70.84496,978-927-2270,4649.7599999999975,36
60148c56-7c52-3092-819a-da19d5c374b2,PCP105303,214 OCEAN ST,LYNN,MA,01902-3195,42.474862,-70.96218499999999,,7362.119999999994,57
d137c2c9-e4c8-32d9-a83f-fdd4da308465,PCP105321,200 SUTTON ST,NORTH ANDOVER,MA,01845-1645,42.673909,-71.091334,,1291.6000000000001,10
2a4518d8-7014-3404-b2e9-1c30c76b6a12,OUTBACK PHYSICAL THERAPY  INC.,149 A HIGHLAND AVE,SOMERVILLE,MA,02143-1650,42.390445,-71.101033,617-718-9300,3616.4799999999987,28
0cd03411-0b0e-327d-aea2-d9b426ac1d67,NEUROSURGERY CENTER OF SOUTHERN NEW ENGLAND  PC,537 FAUNCE CORNER RD,DARTMOUTH,MA,02747-1242,41.56651,-70.958229,508-672-0545,8137.079999999994,63
99157068-4f0d-3906-8723-d8b7fda349f5,PCP107381,1533 LAKEVIEW AVE,DRACUT,MA,01826-3324,42.679722999999996,-71.30068,,4003.959999999998,31
4efb4d4a-24b3-3a91-a868-34556b4fd48f,SYNERGY HEALTHCARE CORP,147 B WASHINGTON ST,FAIRHAVEN,MA,02719-4013,41.633619,-70.871306,508-991-2918,6845.479999999995,53
9de56a33-a10b-32e6-986c-b9576eb3e933,BAY RADIOLOGY ASSOCIATES  INC.,273 TEATICKET HWY,TEATICKET,MA,02536-5638,41.562579,-70.587349,508-495-8000,6457.999999999995,50
68cee1fa-8311-3f11-b2b5-07aae9231c35,GREENDALE PHYSICAL THERAPY LLC,145 CHURCH ST,CLINTON,MA,01510-2560,42.411887,-71.690005,978-598-3155,4391.439999999998,34
2fd9eeda-5a13-3ba5-aeac-06be0e7b2d23,PCP109021,1379 RT 28A UNIT,CATAUMET,MA,02534-0667,41.688804,-70.639267,,5941.359999999996,46
641c80f2-5f38-3fe8-ae8d-1d96687c699a,REHAB RESOLUTIONS INC,627 COLLEGE HWY,SOUTHWICK,MA,01077-9829,42.05257,-72.777353,413-831-6167,1808.2400000000005,14
b64e856f-b90d-300f-a8cb-4f458389f80e,PCP110663,265 MEDFORD ST,SOMERVILLE,MA,02143-1963,42.390445,-71.101033,,6974.639999999995,54
1e2a9b69-6ba1-3956-8318-4620360f91d7,PCP111344,JOHN CUMMING BLDG,CONCORD,MA,01742-4162,42.462911,-71.364496,,1937.4000000000005,15
e380d6b5-8dfa-398e-9498-2e7e57b0972e,PCP111557,20 PARKINGWAY,COHASSET,MA,02025-1700,42.262428,-70.79888299999999,,17824.079999999984,138
f27325c3-584b-30c3-860e-c8965912aeee,PCP113494,299 CAREW ST,SPRINGFIELD,MA,01104-2361,42.115454,-72.539978,,6199.679999999996,48
aeb088d2-fff9-31fa-a081-aef2d585e089,PCP113549,767 MAIN RD,WESTPORT,MA,02790-4398,41.579794,-71.081822,508-636-6331,10591.119999999992,82
d9242200-7588-3df0-8ff0-61a45b07c487,PCP114043,32 NYE AVE,ACUSHNET,MA,02743-2750,41.718216999999996,-70.901151,,36681.440000000075,284
b0d46e53-6b47-354a-9ddb-9ed9302ae9f5,PCP114062,77 W MAIN ST,HOPKINTON,MA,01748-1684,42.224096,-71.54048900000001,,5295.559999999997,41
4c6c368b-e4ea-3cf2-a4c8-dd2cfa905849,PCP114251,60 E ST,METHUEN,MA,01844-4519,42.742751,-71.178588,,11624.39999999999,90
8de13ae4-0690-388e-b0be-ebda7bbafc24,PCP114282,558 LINCOLN AVE,SAUGUS,MA,01906-3850,42.468432,-71.01394599999999,,4133.119999999998,32
4546473c-afe5-3569-8066-00e1fe785348,PCP115224,6 PLEASANT ST,MALDEN,MA,02148-5167,42.42938,-71.058706,,2841.5199999999995,22
5fc5349f-9ce7-364c-96ce-9a27873204e3,PCP116640,35 MAIN ST,SAUGUS,MA,01906-2305,42.468432,-71.01394599999999,781-233-1946,4003.959999999998,31
3c459c2e-dd57-3035-826e-e58822a09bb8,LEONARDO PHYSICAL THERAPY,230 LOWELL ST,WILMINGTON,MA,01887-3088,42.564646999999994,-71.164516,978-657-7404,6328.839999999996,49
df307868-cb89-31d5-8894-1ddbc7f7fbda,PCP118039,118 GREAT RD,STOW,MA,01775-1190,42.429688,-71.512514,,6199.679999999996,48
9aad70a5-7d3c-3907-8177-b56f43db7005,PCP119440,15 MANNING RD,MIDDLETON,MA,01949-1526,42.610513,-71.007118,,6974.639999999995,54
64a9eaf6-3eef-3149-988c-3436d918d805,PCP119483,54 FAIRFIELD ST,CAMBRIDGE,MA,02140-1911,42.376043,-71.11868,,3616.4799999999987,28
c237e4cd-adeb-359d-910a-c5173d5e762e,PCP120024,77 RUMFORD AVE,WALTHAM,MA,02453-3872,42.388921,-71.24226800000001,,645.8,5
97cc2f81-ed68-37ff-ad8a-37dcb0849589,PCP120562,62 B WALNUT PK,NEWTON,MA,02458-1434,42.331876,-71.208402,,4520.599999999998,35
d383bf73-3e17-3516-b82d-63fd1731538f,PCP121058,275 CHESTNUT ST,SPRINGFIELD,MA,01104-3562,42.115454,-72.539978,,4649.7599999999975,36
05813beb-ff40-3aae-9735-d0540f3326a0,PCP121122,191 CITY DEPOT RD,CHARLTON,MA,01507-5445,42.133935,-71.968025,,3616.4799999999987,28
e1487097-cf0f-3e9e-9239-2e2d1d831711,PCP121859,1180 BEACON ST,BROOKLINE,MA,02446-3840,42.323853,-71.142003,,3874.7999999999984,30
a1331f5d-b18b-318a-b376-81d14db5983f,PCP122892,76 MAIN ST,PEPPERELL,MA,01463-1561,42.670643,-71.602858,978-433-0517,6716.319999999995,52
3e8fed1d-b032-3042-948e-2a320b945649,PCP123140,922 WALHAM ST,LEXINGTON,MA,02421-8019,42.445221999999994,-71.23001500000001,,4262.279999999998,34
1776755d-7040-3d15-b588-d67de0149d76,PCP124300,5 CROWLEY RD,WESTHAMPTON,MA,01027-9637,42.314078,-72.777977,,15886.679999999986,123
3d98a940-6fb3-34af-8854-97ae5b045ea8,PCP124355,1180 BEACON ST A,BROOKLINE,MA,02446-3870,42.323853,-71.142003,,4391.439999999998,34
e305522d-d431-39a2-a006-140effe9dc22,PCP124647,1520 BLUE HILL AVE,MATTAPAN,MA,02126-1747,42.33196,-71.020173,,4133.119999999998,32
2d8afc8c-9d35-3e5c-bfaa-da963646d830,PCP126113,1 COURTHOUSE LN,CHELMSFORD,MA,01824-1735,42.597055,-71.3697,,3487.319999999999,27
b95e373d-e572-32b5-b1d8-73ce19ce2add,PCP126339,288 GROVELAND ST,HAVERHILL,MA,01830-6674,42.782945,-71.087436,978-521-8810,4003.959999999998,31
ae072d0e-0be7-3627-ad1e-8be87110de63,PCP126432,50 LOOMIS ST,BEDFORD,MA,01730-2208,42.499295000000004,-71.281889,781-275-4479,4262.279999999998,33
6eb642c6-9c0d-35a4-af6d-a29b6bf0f59e,MANHAN INTERNAL MEDICINE PC,6 PARC PL,SOUTHAMPTON,MA,01073-9277,42.226949,-72.74158800000001,413-529-9282,3616.4799999999987,28
0edf8992-5b46-399e-b893-bad48709e8ca,PCP127006,158 BRIDGE RD D,SALISBURY,MA,01952-2446,42.844794,-70.841499,,6457.999999999995,50
dc4038ce-46ce-3540-8beb-506b56b14aa5,PCP127217,29 HUBBARDSTON RD,PRINCETON,MA,01541-1808,42.454125,-71.87754,,2712.3599999999997,21
586a18da-302b-3bd7-821b-3acffd3a9025,PCP127395,65 WALNUT ST,WELLESLEY HILLS,MA,02481-2154,42.30539,-71.28366899999997,,5295.559999999997,41
f3079beb-eff8-3817-a339-889120335756,PCP127421,354 W BOYLSTON ST,WEST BOYLSTON,MA,01583-2373,42.369417,-71.785036,,4391.439999999998,34
7828e5ea-1d0c-3cb2-a168-cbca730c12ee,A PLUS CHIROPRACTIC MANAGEMENT INC,2360 CRANBERRY HWY,WEST WAREHAM,MA,02576-1208,41.791736,-70.75787199999999,508-273-0190,3745.6399999999985,29
5b6cc27c-536c-3e5c-a05c-b743e7132452,PCP128018,283 WASHINGTON ST,WEYMOUTH,MA,02188-1508,42.206676,-70.94584499999998,,7103.799999999995,55
5bf79fb4-483c-3f8c-b6ab-c0668e1f57b1,PCP128544,61 BOXFORD RD,ROWLEY,MA,01969-2419,42.721495000000004,-70.886637,978-853-8742,4391.439999999998,34
c60b66d8-ce80-3d94-b4a7-2d97367a801b,PCP128550,140 MAIN ST,GROTON,MA,01450-1271,42.61176,-71.565269,,1808.2400000000005,14
dbfa66e9-265c-3318-bb29-f62723794d4d,PCP129234,300 CHESTNUT ST,NEEDHAM,MA,02492-2497,42.281593,-71.242414,,5166.399999999997,40
bf2f2ad5-a590-340d-8092-4e0355d30f36,PCP130468,1 W FOSTER ST,MELROSE,MA,02176-3879,42.455723,-71.05901899999999,,3616.4799999999987,28
ea745794-0618-3d3f-95e1-9121df4e6909,SPECTRUM HEALTH SYSTEMS  INC,105 MERRICK ST,WORCESTER,MA,01609-1937,42.269478,-71.807783,508-797-6100,3874.7999999999984,30
d3cc69af-4bee-32e8-966d-b6b78d71d4c8,PCP131442,4 S SPOONER ST,PLYMOUTH,MA,02360-4451,41.897892,-70.62403,508-617-0070,5037.239999999997,39
81d97677-f9f6-30ec-b5e9-efba1615787b,PCP133179,180 STATE RD,SAGAMORE BEACH,MA,02562-2362,41.782888,-70.5321,,1937.4000000000005,15
04c749da-634e-3e9e-9806-a5052635370e,PCP133287,1592 GAR HWY,SOMERSET,MA,02726-1210,41.738479,-71.165065,,7878.759999999994,61
1328b793-6692-370d-9ee7-d0bfe8e764e8,PCP133804,700 ATTUCKS LN,HYANNIS,MA,02601-1809,41.647227,-70.249978,,2970.6799999999994,23
bdea7937-8a09-3972-816d-98dbc1b47c0b,MCNALLY BROTHERS,1066 GRANBY RD,CHICOPEE,MA,01020-1539,42.175668,-72.572257,413-534-4224,17824.079999999984,138
a7d76183-97c6-3804-93aa-7919103d1c6c,BOSTON VISION WORKS INC,335 MAIN ST,SAUGUS,MA,01906-3143,42.468432,-71.01394599999999,,2324.88,18
04831a0b-4b17-31f7-96de-88a95271d2f8,PCP136346,63 MAIN ST,BRIDGEWATER,MA,02324-1455,41.972376000000004,-70.978773,,3358.159999999999,26
ef641207-f8e0-3e95-98a2-42b81e5df977,MERRIMACK VALLEY ORAL SURGEONS  INC,33 BARTLETT ST,LOWELL,MA,01852-1334,42.63898,-71.321141,978-454-5637,6199.679999999996,48
5f5140f3-df3b-3af2-bc42-a671fc6a5a28,PCP137171,17 N AVE,ROCKLAND,MA,02370-2123,42.129251000000004,-70.908736,,10591.119999999992,82
92377c0c-4047-35a0-86dc-870e614099ea,PCP137290,1 COTTAGE ST,PEPPERELL,MA,01463-1504,42.670643,-71.602858,,645.8,5
2d42e22e-e8cd-3b82-b187-5a996808c588,PCP139899,6 ESSEX CTR DR,PEABODY,MA,01960-2906,42.534279,-70.969782,,5683.039999999996,44
a0acd405-3ff0-34d3-9025-db6860a659bd,PCP140945,628 OLD WESTPORT RD,N. DARTMOUTH,MA,02747-2398,41.646686,-70.999158,,5683.039999999996,44
173fa89c-f765-3117-8fb4-141a54f4b96d,PCP142176,599 CANAL ST,LAWRENCE,MA,01840-1244,42.700272999999996,-71.161357,,4778.919999999997,37
68d3d96d-1cfc-3a8c-9985-bbe0457922de,PCP143203,612 WASHINGTON ST,CANTON,MA,02021-3032,42.175737,-71.125385,,5037.239999999997,39
3ed98587-8c4c-33b4-9cbe-ec7fc451d2b6,PCP143874,242 JOHN WISE AVE,ESSEX,MA,01929-1027,42.64042,-70.77117199999999,,9428.679999999993,74
8acdc9ed-79b4-378f-9f2e-73841f346a69,PCP144231,175 DWIGHT RD,LONGMEADOW,MA,01106-1767,42.047565000000006,-72.57113000000001,,4133.119999999998,32
c12c97f4-4850-39a7-b872-353fc761a4c8,PCP144552,332 WASHINGTON ST,WELLESLEY HILLS,MA,02481-6204,42.30539,-71.28366899999997,,4520.599999999998,35
128846fb-8f17-39ca-9bc6-f65e0d3aa34e,PCP144556,385 BROADWAY,REVERE,MA,02151-3059,42.421005,-70.99036,,13045.159999999989,101
060d4631-3566-3d04-9205-2827b0f87c2e,PCP144782,111 EVERETT AVE,CHELSEA,MA,02150-2380,42.396824,-71.031348,,4003.959999999998,31
f14c80d1-186a-3f01-b86c-4c3d4c10b387,EYE ASSOCIATES OF SOMERVILLE INC.,174 BROADWAY,SOMERVILLE,MA,02145-3129,42.390445,-71.101033,617-666-1800,4262.279999999998,33
200fda80-4f41-3747-bfb4-5db70c2e3868,PCP144929,274 WESTFIELD ST,WEST SPRINGFIELD,MA,01089-2572,42.125451,-72.649734,,12011.87999999999,94
5568f057-71f4-3cd1-a9fc-c374dc73c27a,PCP145090,194 MAIN ST,WAREHAM,MA,02571-2112,41.76104,-70.701779,,1162.44,9
5925dc03-88d0-36ac-be4a-008f30efce99,PCP145094,1218 MASSACHUSETTS AVE,CAMBRIDGE,MA,02138-3835,42.376043,-71.11868,617-441-8889,2066.5600000000004,16
4a9de4a4-b2ea-30db-a41a-cfe4831650d7,PCP145307,521 MT AUBURN ST,WATERTOWN,MA,02472,42.369451,-71.177925,,2583.2,20
bdd22eca-f670-301a-816f-d7496f9a4f86,PCP145335,216 MAIN ST,OXFORD,MA,01540-3310,42.12826,-71.8671,,5812.199999999996,45
54f6fc59-7709-310f-9249-1e92d0464b00,PCP145391,21 MAIN ST,NORTH READING,MA,01864-2270,42.578222,-71.084398,,8266.239999999994,64
af1cd5f0-7b52-3b1b-b207-e497fca9715e,JEWISH FAMILY AND CHILDREN'S SERVICE,1430 MAIN ST,WALTHAM,MA,02451-1623,42.388921,-71.24226800000001,781-647-5327,3874.7999999999984,30
75198e43-d0eb-3238-b867-d3c5e96a50c5,PCP148186,344 BOSTON POST RD,SUDBURY,MA,01776-3007,42.383367,-71.42107,,5295.559999999997,41
74bcc230-395e-36d3-8496-5d7eac94f677,PCP148330,3 BALDWIN GREEN CMN,WOBURN,MA,01801-1870,42.488769,-71.154438,,7620.439999999994,59
c1654c68-605a-373d-8fc7-a200d5935b6a,PCP148373,55 PITTSFIELD RD,LENOX,MA,01240-2185,42.367858,-73.269763,413-637-1513,3745.6399999999985,29
71f24617-2b51-3355-90fe-2fca0875edb1,PCP148673,96 LYMAN ST,SOUTH HADLEY,MA,01075-2352,42.256208,-72.58103,413-533-7176,4003.959999999998,31
317b4c11-0445-3de4-9079-7436349286e9,PCP148797,795 MAIN ST,HOLDEN,MA,01520-3800,42.355801,-71.862574,,5683.039999999996,44
2cfd240e-3280-34b6-96cc-daf60ad5d14f,PCP148963,21 E MAIN ST,AVON,MA,02322-1413,42.132461,-71.054013,508-586-1046,17824.079999999984,138
f842c306-8746-31a4-a740-817ff64d755b,PCP149840,90 TAUNTON ST,WRENTHAM,MA,02093-1349,42.052671000000004,-71.356858,,5812.199999999996,45
b84fd170-71a9-3989-bb5b-b0810f6f5410,PCP150237,157 CTR BRIDGE RD,LANCASTER,MA,01523-2227,42.483569,-71.675585,,3874.7999999999984,30
ff038275-29a5-32b0-918b-fae967a15738,PCP151160,54 HOPEDALE ST,HOPEDALE,MA,01747-1700,42.123007,-71.53140400000001,,4778.919999999997,37
addb7e46-903a-307e-8c93-211a08d567e8,PCP151844,630 BALDWINVILLE RD,BALDWINVILLE,MA,01436-1330,42.604845000000005,-72.078823,,4391.439999999998,34
e8a5ea3a-5261-3782-8a48-fb72e328c3ba,PCP152351,116 CAMP ST,HYANNIS,MA,02601-3095,41.647227,-70.249978,,7103.799999999995,55
935d467f-947f-3472-976e-2cb856fcfc03,PCP153225,350 PARK ST,NORTH READING,MA,01864-2162,42.578222,-71.084398,,7620.439999999994,59
9e3e3ea0-fcab-3dcc-8aa3-a08c62bc8f84,PCP153368,287 SCHOOL ST,MANSFIELD,MA,02048-1850,42.017302,-71.21641,,6974.639999999995,54
791d44ae-a69a-38e6-b1a2-7e6e1c5d55e2,PCP154911,60 CHELMSFORD ST,CHELMSFORD,MA,01824-3099,42.597055,-71.3697,978-256-6565,5683.039999999996,44
a7c34da7-86c7-366a-96ec-f6e8898f3d19,PCP154953,160 BROADWAY,RAYNHAM,MA,02767-1414,41.930477,-71.046214,,4262.279999999998,33
4f0a1843-c819-3964-a2e9-2dab906b84bf,PCP154964,1440 GAR HWY,SOMERSET,MA,02726-1218,41.738479,-71.165065,,5166.399999999997,40
150d4bec-d11c-3014-8818-45127743725d,PCP155636,69 BAYVIEW AVE,BERKLEY,MA,02779-1924,41.838060999999996,-71.07761500000001,,24411.239999999976,189
cbe82dc8-6dbb-3748-9472-6482b7c0f1b2,PCP156405,260 BOSTON POST RD,WAYLAND,MA,01778-1888,42.360427,-71.361099,,3616.4799999999987,28
322815fe-2d29-3fb0-9466-f66d4dd5796d,PCP156761,321 WASHINGTON ST,WESTWOOD,MA,02090-1801,42.219645,-71.216768,,6199.679999999996,48
e993c5ec-0388-3a43-a38d-e3b0a8049529,PCP156941,9 BOSTON ST,LYNN,MA,01904-2536,42.474862,-70.96218499999999,,8266.239999999994,65
186b4ff0-7e03-3cc8-ab9a-de3d9c758a10,PCP157812,100 HIGHLAND ST,MILTON,MA,02186-3881,42.241557,-71.082432,,5941.359999999996,46
5706c92d-4ff2-3c9e-a7bd-87efabbb9e1d,PCP158806,101 BROADWAY RD,DRACUT,MA,01826-4068,42.679722999999996,-71.30068,978-970-2222,9816.159999999993,76
5b8e39d6-1252-3f1e-ac01-48ac960b7f98,PCP158831,275 TURNPIKE ST,CANTON,MA,02021-2353,42.175737,-71.125385,,4908.079999999997,38
181de298-12d8-368a-b13f-483c6afb066f,PCP158864,990 PARADISE RD,SWAMPSCOTT,MA,01907-1309,42.468059000000004,-70.89126,,3745.6399999999985,29
927eb0a8-c2d9-3c94-9741-4ce636ae4b06,PCP159069,17 COCASSET ST,FOXBOROUGH,MA,02035-2948,42.061338,-71.245802,,4003.959999999998,31
fde2b034-57ff-3377-8a26-f8813d30318c,PCP159385,234 LITTLETON RD,WESTFORD,MA,01886-3530,42.585541,-71.44025,,4262.279999999998,33
f90cf2ac-d428-3efa-a247-6c92373a5996,PCP159648,300 MOUNT AUBURN ST,CAMBRIDGE,MA,02138-5665,42.376043,-71.11868,617-661-0567,1808.2400000000005,14
4704a61f-da64-3f8e-b79f-9e6d98764a85,CHEST DISEASES GROUP PC,585 LEBANON ST,MELROSE,MA,02176-3225,42.455723,-71.05901899999999,781-979-3000,4133.119999999998,32
e47f45c5-4046-3f5c-a384-4b2be04177b6,PCP160672,799 CONCORD AVE,CAMBRIDGE,MA,02138-1048,42.376043,-71.11868,,2583.2,20
d67076df-aafc-3cec-9060-f87af7bb8c49,EVERETT FOOT CARE PC,459 BROADWAY,EVERETT,MA,02149-3614,42.405938,-71.054649,617-387-4200,3745.6399999999985,29
2567a7b5-eed4-3251-9936-8cd456261e24,PCP161397,80 N AVE,ABINGTON,MA,02351-1707,42.119966999999995,-70.957211,781-982-3118,4133.119999999998,32
9cb9c46d-64f4-3f51-9cbb-f16b27e8b771,PCP161804,53 SPRINGFIELD ST,CHICOPEE,MA,01013-2624,42.175668,-72.572257,,4133.119999999998,32
566caf3b-4ca1-38dd-8de9-d021cca137c8,PCP165748,3 NAMSKAKET RD,ORLEANS,MA,02653-3511,41.76935,-69.969034,,1420.7600000000002,11
f3b73817-43cb-3762-8353-bcfb64aa9b10,PCP166078,120 STOCKWELL DR,AVON,MA,02322-1149,42.132461,-71.054013,508-232-4012,11753.55999999999,91
2c3e6615-030f-35a7-aeb4-f32bbb83af26,PCP166560,150 BRYN MAWR AVE,AUBURN,MA,01501-1607,42.198708,-71.846006,,9428.679999999993,73
cf787aee-85f7-3eb6-8c68-979e57dc232e,PCP166810,46 TOLL RD,SALISBURY,MA,01952-1435,42.844794,-70.841499,,6845.479999999995,53
24bcfc89-997e-3a62-a6c3-83ed31af8901,PCP167180,22 MCGRATH HWY 4,SOMERVILLE,MA,02143-4508,42.390445,-71.101033,,4649.7599999999975,36
a257a71e-5197-33d8-9915-08b8e55b793e,PCP167271,10 CONVERSE PLACE 3RD FLOOR,WINCHESTER,MA,01890-2718,42.452752000000004,-71.144319,,4520.599999999998,35
3c8b233a-6c05-3357-b6e0-97306efcf971,PCP167629,54 MAPLE AVE B,RUTLAND,MA,01543-1527,42.388284999999996,-71.969865,,15111.719999999987,117
18c9efe7-ec0e-3c35-b58d-738000e2036e,PCP167800,44 RIVULET ST,UXBRIDGE,MA,01569-3134,42.061166,-71.643628,,6199.679999999996,48
622c788f-22b9-3027-a793-55b0c25e175c,PCP167851,34 MILL ST,PEMBROKE,MA,02359-3201,42.067803999999995,-70.805713,339-793-0935,3487.319999999999,27
933522dd-5a18-3dc6-a7df-2d6fa60b16b4,PCP168001,55 N ST,PITTSFIELD,MA,01201-5874,42.451840000000004,-73.260685,413-442-5600,3228.999999999999,25
58dcc9f2-80d7-32f8-a79c-170d89714a66,PCP168404,231 ELM ST,WALPOLE,MA,02081-1903,42.146285999999996,-71.255604,,7103.799999999995,55
bdea333f-75aa-3da6-bb15-c02294f7775e,C AND S REHABILITATION INCORP,40 N MAIN ST,BELLINGHAM,MA,02019-1590,42.076682,-71.47449,508-966-2717,4649.7599999999975,36
1cd0c473-8ffa-316c-93e5-26117ca78f56,BAY COVE HUMAN SERVICES  INC,170 MORTON ST,JAMAICA PLAIN,MA,02130-3735,42.33196,-71.020173,617-619-5900,6328.839999999996,49
4d5ea158-ef9a-3e98-b50e-be337873775f,VINEYARD MEDICAL CARE LLC,364 STATE RD,VINEYARD HAVEN,MA,02568-5624,41.457484,-70.605097,508-693-4401,6716.319999999995,52
f4b17194-c722-3193-8444-41b5cd7d585d,PCP171355,869 MAIN ST,WALPOLE,MA,02081-2985,42.146285999999996,-71.255604,508-668-3284,3616.4799999999987,28
2acd3148-fcd7-3092-8cac-60cafaeea43e,PCP171542,189 CHURCH ST,CARLISLE,MA,01741-1854,42.53662,-71.36183199999999,978-369-5093,12528.51999999999,97
4409c5e7-33d9-3c5a-83f6-28da324a5f22,GASTROINTESTINAL SPECIALISTS  LLC,1 COMPASS WAY,EAST BRIDGEWATER,MA,02333-1466,42.037278,-70.94045899999999,508-588-6700,6457.999999999995,50
479700f9-8575-3919-9c44-3cc8d5af69f2,CENTRAL MASSACHUSETTS PODIATRY  PC,299 LINCOLN ST,WORCESTER,MA,01605-3646,42.269478,-71.807783,508-757-4003,1808.2400000000005,14
faa49f7e-8729-34d4-be47-2eca22456dab,LEOMINSTER DERMATOLOGY LLP,100 HOSPITAL RD,LEOMINSTER,MA,01453-2253,42.520876,-71.770611,978-534-0582,10332.799999999992,80
868e18c1-c034-3b51-a050-3fe9bf3321aa,MELROSE INTERNAL MEDICINE ASSOC PC,50 ROWE ST,MELROSE,MA,02176-3201,42.455723,-71.05901899999999,781-979-3800,5037.239999999997,39
618121e5-675e-3efc-80a2-e6aac5a65ed1,FACIAL COSMETIC AND MAXILLOFACIAL SURGERY P.C.,382 N MAIN ST,EAST LONGMEADOW,MA,01028-1830,42.062378,-72.498111,413-525-0100,4778.919999999997,37
e0ca0c69-8ba4-35e5-aa72-ea06997ed383,HILLTOWN COMMUNITY HEALTH CENTERS INC,58 OLD N RD,WORTHINGTON,MA,01098,42.397559,-72.943392,413-238-5511,5424.719999999997,42
89e64f66-2fc3-3d70-b972-90bf999a052e,DERMATOLOGY AND SKIN CARE ASSOCIATES LLC,10 LAUREL AVE,WELLESLEY HILLS,MA,02481-7536,42.30539,-71.28366899999997,781-235-8155,3099.8399999999992,24
caca1b73-f19c-3766-9f3d-1d104f3c9001,FITZPATRICK MORAN COSTA AND HAAG-RICKERT LLP,299 CAREW ST,SPRINGFIELD,MA,01104-2301,42.115454,-72.539978,413-781-6210,3487.319999999999,27
9ecd29f6-9a10-3d24-baac-b98f5db48e4f,ENT SPECIALISTS  INC,188 WASHINGTON ST,PLAINVILLE,MA,02762-1301,42.012797,-71.336578,508-699-1701,3487.319999999999,27
65532f2c-c3de-31f9-b2d6-ef1f3134a4da,PCP175423,63 S MAIN ST,NATICK,MA,01760-4921,42.284822,-71.348811,508-653-0628,5941.359999999996,46
620d4a8a-ef3b-30c4-9c58-a409e8f3b7f1,POSTUM EYE CARE INC,13 MECHANIC ST,BELLINGHAM,MA,02019-9998,42.076682,-71.47449,508-657-1242,7362.119999999994,57
f2bde837-70e9-311e-8543-cd30e8fa7693,HARBOR MEDICAL ASSOCIATES  INC.,541 MAIN ST,SOUTH WEYMOUTH,MA,02190-1857,42.206676,-70.94584499999998,781-952-1480,5553.8799999999965,44
50396b58-b51a-3165-9a94-78b17bb7c09e,PCP176479,145 WHITTIER RD,MILTON,MA,02186-3736,42.241557,-71.082432,617-322-1544,4133.119999999998,32
35763b90-63ab-3c6a-895a-8c83bfa6bd3c,PCP178557,146 MAIN ST,NORFOLK,MA,02056-1322,42.116244,-71.329274,,7232.959999999995,56
0508f565-d970-34cc-93a2-ed6d56fd69e3,PCP178883,49 STATE RD,NORTH DARTMOUTH,MA,02747-3322,41.646686,-70.999158,,1033.28,8
f3889d60-e191-383e-950d-cd066aa9780a,PCP179681,500 CONGRESS ST,QUINCY,MA,02169-0960,42.261006,-71.008988,617-472-3137,6845.479999999995,53
b43891e9-15b2-3dd0-ae9a-319739ed65ba,PCP179741,490 N MAIN ST,RANDOLPH,MA,02368-3741,42.178993,-71.052654,,9557.839999999993,74
8d44fa5a-815e-3ec9-9764-b2ab13e694ea,PCP180186,21 A ST,BURLINGTON,MA,01803-3404,42.503227,-71.201713,781-229-9505,9557.839999999993,75
e9cc783d-15d3-38c6-a7cd-a5d27e6fa94e,EJC EYECARE  LLC,289 MOODY ST,WALTHAM,MA,02453-5205,42.388921,-71.24226800000001,781-894-0081,6974.639999999995,54
cca20645-6ff2-372f-9fb3-63842ea37716,PCP180302,71 MAIN ST,WESTMINSTER,MA,01473-1472,42.5546,-71.90544,978-660-2567,3616.4799999999987,28
59029440-c787-39fb-8ad9-8e2e14ae018a,PCP180419,730 MAIN ST,MILLIS,MA,02054-1612,42.173103000000005,-71.36375600000001,,7620.439999999994,59
83fea8e1-cec3-3912-a20e-60a2ec95bb76,FRANK TWAROG MD AND CURTIS MOODY MD LLP,1 BROOKLINE PL,BROOKLINE,MA,02445-7237,42.323853,-71.142003,617-735-8750,2195.7200000000003,17
661a33b4-63fe-3c65-a35f-ba21dbecd5cb,PCP182570,7 BURNHAM ST,TURNERS FALLS,MA,01376-1842,42.597445,-72.555278,,3487.319999999999,27
4fa341c0-f4cd-3d61-9216-d4e26bf3cf8d,PCP183126,1176 MEMORIAL DR,CHICOPEE,MA,01020-3958,42.175668,-72.572257,,3616.4799999999987,28
e93f0e58-46cb-3993-afe7-cf27a7ed42e9,STEWARD ST. ELIZABETH'S MEDICAL CENTER OF BOSTON  INC.,77 WARREN ST 2ND FLOOR,BRIGHTON,MA,02135-3601,42.33196,-71.020173,614-562-5250,7620.439999999994,59
246ed1fc-bf91-30e6-9e24-41b2edac11e3,SEASONS MEDICAL GROUP OF MASSACHUSETTS PC,20 BURLINGTON MALL RD,BURLINGTON,MA,01803-4129,42.503227,-71.201713,617-454-0200,12399.35999999999,96
6140ee03-475f-3b22-89ee-88903e78c966,SALEM NEW HAMPSHIRE PHYSICIANS NETWORK PC,380 MERRIMACK ST R,METHUEN,MA,01844-5870,42.742751,-71.178588,978-688-7860,9170.359999999993,71
ce0e9649-2966-3cbe-ac50-f8b38fd4aa28,NE NEPHROLOGY HOME CARE ASSOCIATES,2100 DORCHESTER AVE,DORCHESTER,MA,02124-5615,42.33196,-71.020173,617-296-4000,1937.4000000000005,15
c3c463d8-c74a-3b85-915b-8e4356df2ee7,COMMONWEALTH PATHOLOGY PARTNERS PC,500 LYNNFIELD ST,LYNN,MA,01904-1424,42.474862,-70.96218499999999,781-477-3454,4908.079999999997,38
17cd0bbd-7924-3e7d-9c83-db7ad8a5c430,PCP186982,125 PARKER HILL AVE,ROXBURY CROSSING,MA,02120-2847,42.33196,-71.020173,617-277-3800,3745.6399999999985,29
2af22601-e642-38dd-b032-22e0947f6b1e,PCP187044,184 W MAIN ST,NORTON,MA,02766-1243,41.965340999999995,-71.18178,,1549.9200000000003,12
8b5b3089-d991-3b34-8d1f-9aa4272dacd2,PCP187238,594 MARRETT RD,LEXINGTON,MA,02421-7605,42.445221999999994,-71.23001500000001,978-256-5626,4778.919999999997,38
e3935a93-f9e6-3f50-a4d4-2ae1b840b89d,PCP188849,20 BOBOLINK RD,WELLESLEY,MA,02481-3537,42.305932,-71.282917,781-235-7990,5424.719999999997,42
a1306e29-e552-3fd2-914c-22335224e990,MASSACHUSETTS EYE ASSOCIATES PC,33 BARTLETT ST,LOWELL,MA,01852-1335,42.63898,-71.321141,978-256-5600,3745.6399999999985,29
83a95b3b-fe80-30c2-83ea-9fec2602ae76,PCP189927,111 ELM ST,WORCESTER,MA,01609-1921,42.269478,-71.807783,508-756-37504,4003.959999999998,31
f9ef9e4c-545b-3707-9134-4e8812ca0984,PCP190759,395 MAIN ST S,BARRE,MA,01005-9005,42.418848,-72.10659799999999,978-355-2191,5037.239999999997,39
cd300275-3f4d-3adb-98aa-4e5bba25be24,PCP191696,990 PARADISE RD,SWAMPSCOTT,MA,01907-1309,42.468059000000004,-70.89126,781-599-7802,8912.039999999994,69
c3530cd4-ee59-354b-bfc8-83815c6fddb9,PCP191724,89 ACCESS RD,NORWOOD,MA,02062-5229,42.187364,-71.195971,781-349-5312,6199.679999999996,48
25810620-b0c9-33fb-9db5-76f2cb872967,PCP192265,319 SOUTHBRIDGE ST,AUBURN,MA,01501-2506,42.198708,-71.846006,508-832-9646,5424.719999999997,42
ab8f0ee8-6508-3db4-8bea-0520510710f2,PCP192316,220 N MAIN ST,NATICK,MA,01760-1100,42.284822,-71.348811,508-650-1030,5553.8799999999965,43
44f69d13-ff6b-3924-aca6-36f9a26703fa,PCP192733,19 ALHAMBRA RD,WEST ROXBURY,MA,02132-1815,42.33196,-71.020173,617-524-3700,4133.119999999998,32
983edc04-b8da-336c-942d-f9a6119e8d1d,PCP192853,230 ROUTE 149,MARSTONS MLS,MA,02648-1834,41.662727,-70.357208,508-428-36984,4649.7599999999975,36
3d879520-4410-39af-9540-10b7a5bea964,PCP193003,35 BROOKFIELD RD,DOVER,MA,02030-1805,42.234159999999996,-71.291167,,2066.5600000000004,16
176a6fd8-69ff-3a50-88f3-90c7e88ef927,MILTON RADIOLOGISTS INC,199 REEDSDALE RD,MILTON,MA,02186-3926,42.241557,-71.082432,617-696-4600,3099.8399999999992,24
1a3625e3-aae0-305c-ae4b-ed26eaefa2b6,PCP193461,983 BENNINGTON ST,EAST BOSTON,MA,02128-1134,42.375541,-70.970646,,3874.7999999999984,30
7d13ab80-118e-33a9-b1fb-c4328286017d,PCP193900,9 OLD CASTLE RD,YARMOUTH PORT,MA,02675-1535,41.706920000000004,-70.221117,508-362-0030,10591.119999999992,82
d0420c35-1d5e-350c-ae5e-bb7d7da789eb,NEW HORIZONS MEDICAL   P.C.,222 BLOSSOM ST EXT,LYNN,MA,01901-1703,42.474862,-70.96218499999999,781-584-4645,5037.239999999997,40
be8038fc-64bf-3140-9b26-65ca43f2e360,MARON DGA PC,220 RESERVOIR ST,NEEDHAM,MA,02494-3133,42.281593,-71.242414,781-449-1143,6716.319999999995,52
c71def3c-1b05-32c4-8348-e6443e820178,LOWELL GENERAL INPATIENT SPECIALISTS PLLC,1 HOSPITAL DR,LOWELL,MA,01852-1311,42.63898,-71.321141,978-458-1411,4778.919999999997,37
cd429f3c-c926-3586-9313-6069f2cab3cc,THE BRIDGE A CENTER FOR HOPE AND HEALING,351 ELM ST,S DARTMOUTH,MA,02748-3407,41.661303,-70.937913,508-542-4542,10074.479999999992,78
025d898e-b44d-3adc-8731-db72468d3596,HINGHAM PHYSICAL THERAPY  INC.,184 LINCOLN ST,HINGHAM,MA,02043-1762,42.224319,-70.880673,781-740-4900,5424.719999999997,42
51597279-be2d-3b01-b6eb-107f7bb217b5,NEW HORIZONS MEDICAL   P.C.,1180 BEACON ST,BROOKLINE,MA,02446-3806,42.323853,-71.142003,617-202-9222,4133.119999999998,32
8b08fa8e-4848-36d0-8264-ddc34f55ef0c,MARK A. LATINA,20 PONDMEADOW DR,READING,MA,01867-3261,42.535183,-71.105423,781-942-9876,5166.399999999997,40
db8a6bf4-82e9-3274-ae80-95ef54d856cf,LOWELL GENERAL INPATIENT SPECIALISTS PLLC,295 VARNUM AVE,LOWELL,MA,01854-2134,42.63898,-71.321141,978-458-1411,7103.799999999995,56
30d331f2-9873-34db-80a2-00d30ad7d21f,DRX MALDEN PROFESSIONALS PC,219 CENTRE ST,MALDEN,MA,02148-5524,42.42938,-71.058706,781-322-7300,3745.6399999999985,29
bff59172-241a-3b81-9212-e9750c91f441,LOUIS B. COIRO  INC,10 JEAN AVE,CHELMSFORD,MA,01824-1740,42.597055,-71.3697,978-441-9452,2712.3599999999997,21
88b6aa57-fd61-331f-b61a-bb16e3648a78,HALLMARK IMAGING ASSOCIATES  PC,830 MAIN ST,MELROSE,MA,02176-2711,42.455723,-71.05901899999999,781-665-8300,3874.7999999999984,30
22662a91-0c7f-3c85-9bcd-382e7684593f,TEAMWORK PHYSICAL THERAPY INC,696 PLAIN ST,MARSHFIELD,MA,02050-2100,42.115139,-70.71033100000001,781-834-0041,2066.5600000000004,16
4843461d-4b7b-37fb-9631-d4d7760afa1b,PCP199148,136 HIGH ST,LANCASTER,MA,01523-2056,42.483569,-71.675585,978-368-1227,5683.039999999996,44
3763510e-0f8d-3109-b9fa-753f1ba85095,NORTHEAST EYE CARE INC,80 LINDALL ST,DANVERS,MA,01923-2135,42.574174,-70.95051600000001,978-777-2292,3874.7999999999984,30
40f9fe28-f1b1-3bfd-8d92-7c876bbefd5f,PCP201466,1446 HIGH ST,WESTWOOD,MA,02090-2743,42.219645,-71.216768,,2454.04,19
7afd6eee-3c9e-3bbb-8d14-2349a1024d76,NORTHEAST EYE CARE INC,503 BROADWAY,EVERETT,MA,02149-3603,42.405938,-71.054649,617-389-4800,1549.9200000000003,12
5b2c12f7-f536-33e9-9bfe-763af81fb91b,VISION CARE SPECIALISTS  P.C.,30 TURNPIKE RD,SOUTHBOROUGH,MA,01772-2115,42.299625,-71.52842700000001,508-482-8558,8007.919999999994,62
b1e13483-c926-3652-a51e-3cf7f531ac8a,TALLMAN EYE ASSOCIATES  PC,360 MERRIMACK ST,LAWRENCE,MA,01843-1740,42.700272999999996,-71.161357,978-688-6182,5812.199999999996,45
8125fe7f-a812-3a6a-81bd-dba734dfeb1b,BEANTOWN PHYSIO  INC,1208 B VFW PKWY,WEST ROXBURY,MA,02132-4350,42.33196,-71.020173,617-325-7246,3745.6399999999985,29
9fc6a4c9-2ab8-3b97-9439-ea0f9e2cfe7a,ANGELS NEUROLOGICAL CENTERS,152 DEAN ST,TAUNTON,MA,02780-2766,41.903324,-71.094987,781-871-3773,1808.2400000000005,14
a09a1172-5ce7-3f2c-9f0d-656010be49aa,MEDFIELD ORTHOPEDIC AND SPORTS PHYSICAL THERAPY,5 N MEADOWS RD,MEDFIELD,MA,02052-2317,42.184599,-71.305307,508-359-9119,7232.959999999995,56
792de92a-d25a-3553-b37c-7b1326bba666,PCP204939,401 MAIN ST,AMHERST,MA,01002-2353,42.363534,-72.50729100000001,413-253-0624,12528.51999999999,97
49c53ceb-46e4-3385-a6c3-a980e081a9dd,NEW ENGLAND COMMUNITY MEDICAL SERVICES PLLC,89 MORTON ST,ANDOVER,MA,01810-2036,42.648044,-71.161751,978-208-4281,2195.7200000000003,17
874296a5-92a9-3fa4-a5fc-92130c1d831b,STANLEY STREET TREATMENT AND RESOURCES  INC,1010 S MAIN ST,FALL RIVER,MA,02724-2855,41.725351,-71.094162,508-235-5010,10203.639999999992,79
593c4aa3-6dd5-3c9d-ae3d-54808b8d3a6c,CARECENTRAL URGENT CARE MEDICAL GROUP PC,233 BROAD ST,BRIDGEWATER,MA,02324-1741,41.972376000000004,-70.978773,781-341-2800,10849.439999999991,84
69177af3-a156-3163-aff5-94422d64c4c4,KENNEDY BROTHERS P.T.,311 ARSENAL ST,WATERTOWN,MA,02472-2782,42.369451,-71.177925,617-924-5100,1033.28,8
c4a4c0f3-4563-3bf8-9435-af51c60fab05,POST ACUTE CARE CLINICIANS LLC,1 S END BRIDGE CIR,AGAWAM,MA,01001-2020,42.064731,-72.653477,413-304-2501,2712.3599999999997,21
1ac92984-69ab-3c07-9b52-73736930a1b5,MERRIMACK VALLEY PET PC,70 E ST,METHUEN,MA,01844-4597,42.742751,-71.178588,978-689-4738,6199.679999999996,48
4f1e5a7d-6902-3300-89bd-c1896eceaecf,PCP209222,62 DERBY ST,HINGHAM,MA,02043-3718,42.224319,-70.880673,781-740-8213,6845.479999999995,53
d3c7fd37-7465-39ca-bceb-c855bedabd2c,PCP209281,2 CHAMBERLAIN AVE,WINTHROP,MA,02152-1011,42.375541,-70.970646,,8395.399999999994,65
b1488029-932f-3fe1-981a-6c31286c6d6c,PCP209809,102 PARKER ST,MAYNARD,MA,01754-2120,42.425955,-71.45625600000001,978-751-0880,3874.7999999999984,30
3992a0fc-b711-32ae-b4ca-d7bb8cb91ea2,NESC MACIPA LLC,154 E CENTRAL ST,NATICK,MA,01760-3644,42.284822,-71.348811,781-431-0060,4133.119999999998,32
56555397-045b-3abe-9ed8-7454cdbfdf20,PHYSICAL THERAPY IN MOTION  INC,439 STATION AVE,SOUTH YARMOUTH,MA,02664-1849,41.667083,-70.200793,508-394-3333,3874.7999999999984,30
970118f6-f872-39d8-9a07-627ad342238b,SOUTH SHORE MEDICAL CENTER  INC.,143 LONGWATER DR,NORWELL,MA,02061-1683,42.164569,-70.818844,781-878-5200,9041.199999999993,70
7b4ee97a-0723-3538-900c-0a9680a6c021,JOHN MAGALHAES AND ASSOCIATES  INC.,382 STATE RD,DARTMOUTH,MA,02747-4302,41.56651,-70.958229,508-991-4520,7362.119999999994,57
dc65ca4f-61b4-368b-89ad-e547698ad822,PINNACLE REHABILITATION NETWORK  LLC,30 LANCASTER ST,BOSTON,MA,02114-1704,42.338551,-71.018253,617-367-4700,4003.959999999998,31
0f5cae69-8592-3aa6-8429-13ca81bd5156,DAVIS SQUARE FAMILY PRACTICE,260 ELM ST,SOMERVILLE,MA,02144-2951,42.390445,-71.101033,617-666-9577,4649.7599999999975,36
8539eb3a-9ab4-3859-acbe-22a2b105df3e,EMERALD PHYSICIAN SERVICES  LLC,1421 ORLEANS RD,HARWICH,MA,02645-2148,41.696512,-70.070113,508-778-4777,7232.959999999995,56
2075b030-1585-3772-8792-fa474af2c744,SOUTH SHORE WOMEN'S HEALTH  P.C.,689 BEDFORD ST,WHITMAN,MA,02382-1807,42.078974,-70.93939,781-447-4001,10591.119999999992,82
98bf7324-756a-3b13-b2db-ef32984ba7f9,PCP218404,20 CARTER ST,TEWKSBURY,MA,01876-1404,42.612088,-71.227845,,6974.639999999995,54
5f3f1316-9911-3702-bf05-7db034c53b9d,HOLYOKE HEALTH CENTER INC.,505 FRONT ST,CHICOPEE,MA,01013-3140,42.175668,-72.572257,413-420-2222,4908.079999999997,38
baaf0ef2-7f96-3f3b-9d63-726a147ee4b6,PCP219120,1 CENTRAL ST,STONEHAM,MA,02180-2046,42.474208000000004,-71.097665,617-803-6863,5037.239999999997,39
a0377648-3a02-3251-bf92-91845b1b552b,PINNACLE REHABILITATION NETWORK  LLC,45 RESNIK RD,PLYMOUTH,MA,02360-4843,41.897892,-70.62403,508-747-6600,5295.559999999997,41
e115c41a-4729-3ea2-bea7-2dc8de7ca721,PCP220821,411 MERRIMACK ST,METHUEN,MA,01844-5821,42.742751,-71.178588,781-724-9041,7878.759999999994,61
489ea445-98d2-3ab6-a7a5-119f343eee53,REHABILITATION MEDICAL ASSOCIATES  P.C.,250 POND ST,BRAINTREE,MA,02184-5351,42.205416,-71.00216800000003,781-848-1300,3358.159999999999,27
dd35d660-a49d-3bc3-94da-424687ec736a,BOND MEDICAL CONSULTANTS PC,284 CANTON ST,WESTWOOD,MA,02090-2206,42.219645,-71.216768,617-418-0218,2195.7200000000003,17
15019426-277a-30bd-9d48-3dde152fe519,HOPEDALE CARDIOVASCULAR ASSOCIATES  LLC,236 MILFORD ST,UPTON,MA,01568-1309,42.176526,-71.603588,508-473-1015,4520.599999999998,35
f43d6681-f2aa-3bb7-81c6-8abe6cfe7a15,PCP222777,54 HOPEDALE ST,HOPEDALE,MA,01747-1719,42.123007,-71.53140400000001,,3745.6399999999985,29
618e8d53-77e5-31d1-b250-8011b7a7f56c,PCP223203,89 MAIN ST,MEDWAY,MA,02053-1818,42.156203000000005,-71.43034499999999,,5037.239999999997,39
efd34254-f154-3650-98d2-0d9b2b901149,PCP224176,237 WASHINGTON ST,MARBLEHEAD,MA,01945-3334,42.495629,-70.83582,,4520.599999999998,35
fb692b45-4246-3574-84cb-7d636ae3aa2e,PHYSICIANS OF NORTH WORCESTER COUNTY,201 HIGHLAND ST,CLINTON,MA,01510-1037,42.411887,-71.690005,978-368-3870,6457.999999999995,50
71e60de1-532e-3edc-9775-7fc53c6fad24,PCP226356,35 TURKEY HILL RD,BELCHERTOWN,MA,01007-9032,42.27901,-72.400468,707-832-3285,5812.199999999996,45
ce9b73b9-27c6-30ff-8b04-9cff8d5f9208,PCP226751,136 HIGH ST EXT,LANCASTER,MA,01523-2056,42.483569,-71.675585,978-365-7418,1033.28,8
