Id,NAME,ADDRESS,CITY,STATE,ZIP,LAT,LON,PHONE,REVENUE,UTILIZATION
ef58ea08-d883-3957-8300-150554edc8fb,HEALTHALLIANCE HOSPITALS  INC,60 HOSPITAL ROAD,LEOMINSTER,MA,01453,42.520838,-71.770876,9784662000,129.16,1
69176529-fd1f-3b3f-abce-a0a3626769eb,MOUNT AUBURN HOSPITAL,330 MOUNT AUBURN STREET,CAMBRIDGE,MA,02138,42.375967,-71.118275,6174923500,129.16,1
5e765f2b-e908-3888-9fc7-df2cb87beb58,STURDY MEMORIAL HOSPITAL,211 PARK STREET,ATTLEBORO,MA,02703,41.931653,-71.294503,5082225200,516.64,4
f1fbcbfb-fcfa-3bd2-b7f4-df20f1b3c3a4,LAWRENCE GENERAL HOSPITAL,ONE GENERAL STREET,LAWRENCE,MA,01842,42.700273,-71.161357,9786834000,516.64,4
e002090d-4e92-300e-b41e-7d1f21dee4c6,CAMBRIDGE HEALTH ALLIANCE,1493 CAMBRIDGE STREET,CAMBRIDGE,MA,02138,42.375967,-71.118275,6176652300,258.32,2
49318f80-bd8b-3fc7-a096-ac43088b0c12,COOLEY DICKINSON HOSPITAL INC THE,30 LOCUST STREET,NORTHAMPTON,MA,01060,42.327044,-72.67463000000002,4135822000,258.32,2
fbf6180e-b800-3ebe-b91d-93d0288c400e,BAYSTATE FRANKLIN MEDICAL CENTER,164 HIGH STREET,GREENFIELD,MA,01301,42.614671,-72.597063,4137730211,129.16,1
4bdaa4c2-c664-3089-aee2-7137abbad27f,HARRINGTON MEMORIAL HOSPITAL-1,100 SOUTH STREET,SOUTHBRIDGE,MA,01550,42.059669,-72.03404,5087659771,11649.349999999973,149
ecc51621-0af3-3b35-ac3e-8b1e34022e92,SAINT ANNE'S HOSPITAL,795 MIDDLE STREET,FALL RIVER,MA,02721,41.725351,-71.094162,5086745600,387.48,3
5d4b9df1-93ae-3bc9-b680-03249990e558,HOLYOKE MEDICAL CENTER,575 BEECH STREET,HOLYOKE,MA,01040,42.211656,-72.642448,4135342500,129.16,1
37b4d73f-652d-3033-a16e-d97b9e8b4cda,ANNA JAQUES HOSPITAL,25 HIGHLAND AVENUE,NEWBURYPORT,MA,01950,42.812141,-70.886646,9784631000,258.32,2
5844ad77-f653-3c2b-b7dd-e97576ab3b03,BAYSTATE WING HOSPITAL AND MEDICAL CENTERS,40 WRIGHT STREET,PALMER,MA,01069,42.187794,-72.30846899999997,4132837651,258.32,2
08bcda9c-f8c8-3244-82d4-fc306a7a55d3,BOSTON MEDICAL CENTER CORPORATION-,1 BOSTON MEDICAL CENTER PLACE,BOSTON,MA,02118,42.33196,-71.020173,6176388000,258.32,2
37c0de84-bcaf-3624-82bf-a89b2ac441b8,BEVERLY HOSPITAL CORPORATION,85 HERRICK STREET,BEVERLY,MA,01915,42.556659,-70.84496,9789223000,8368.919999999984,108
a0b6ec0c-e587-3b2a-bf9f-248849f29ee5,ST ELIZABETH'S MEDICAL CENTER,736 CAMBRIDGE STREET,BRIGHTON,MA,02135,42.33196,-71.020173,6177893000,284.14,3
f71ce1a9-cca7-3295-9a1e-c88ac3479b6f,MARLBOROUGH HOSPITAL,157 UNION STREET,MARLBOROUGH,MA,01752,42.349617,-71.547214,5084815000,6044.27999999999,74
c44f361c-2efb-3050-8f97-0354a12e2920,SIGNATURE HEALTHCARE BROCKTON HOSPITAL,680 CENTER STREET,BROCKTON,MA,02302,42.082543,-71.024638,5089417000,4752.7399999999925,60
331f4c11-d298-308b-aaa1-d7825b29b57f,CLINTON HOSPITAL ASSOCIATION,201 HIGHLAND STREET,CLINTON,MA,01510,42.411887,-71.690005,9783683000,11391.029999999975,147
b1ddf812-1fdd-3adf-b1d5-32cc8bd07ebb,BETH ISRAEL DEACONESS HOSPITAL - PLYMOUTH,275 SANDWICH STREET,PLYMOUTH,MA,02360,41.897892,-70.62403,5087462000,129.16,1
6be05ccf-ef94-341f-a2a3-1cf9bfde1b18,ADCARE HOSPITAL OF WORCESTER INC,107 LINCOLN STREET,WORCESTER,MA,01605,42.269478,-71.807783,5087999000,3642.0299999999957,47
b0e04623-b02c-3f8b-92ea-943fc4db60da,LOWELL GENERAL HOSPITAL,295 VARNUM AVENUE,LOWELL,MA,01854,42.638893,-71.32210699999997,9789376000,542.46,5
d692e283-0833-3201-8e55-4f868a9c0736,HALLMARK HEALTH SYSTEM,585 LEBANON STREET,MELROSE,MA,02176,42.455723,-71.05901899999998,7819793000,13534.98999999997,170
8ad64ecf-c817-3753-bee7-006a8e662e06,MORTON HOSPITAL,88 WASHINGTON STREET,TAUNTON,MA,02780,41.903323,-71.094984,5088287000,129.16,1
23834663-ed53-3da9-b330-d6e1ecb8428e,SOUTHCOAST HOSPITAL GROUP  INC,363 HIGHLAND AVENUE,FALL RIVER,MA,02720,41.725351,-71.094162,5086793131,516.64,4
60457c13-adb2-3415-82c5-86ab5dab5f93,BAYSTATE MEDICAL CENTER,759 CHESTNUT STREET,SPRINGFIELD,MA,01199,42.115454,-72.539978,4137940000,258.32,2
a9f20dc1-5147-3789-bcef-bbecb41c5983,HOLY FAMILY HOSPITAL,70 EAST STREET,METHUEN,MA,01844,42.742751,-71.178588,9786870156,4907.719999999993,62
7fb56531-86bd-3e4a-8619-4df9942da309,BETH ISRAEL DEACONESS HOSPITAL - NEEDHAM,148 CHESTNUT STREET,NEEDHAM,MA,02494,42.281593,-71.242414,7814533002,258.32,2
24cb4eab-6166-3530-bddc-a5a8a14a4fc1,MILFORD REGIONAL MEDICAL CENTER,14 PROSPECT STREET,MILFORD,MA,01757,42.158692,-71.521419,5084731190,619.95,6
ac8356a5-78f8-3a63-8a1e-59e832fd54e7,NASHOBA VALLEY MEDICAL CENTER,200 GROTON ROAD,AYER,MA,01432,42.562221,-71.58484399999998,9787849000,129.16,1
db0acede-4abe-3c01-8d03-5c68a190d8c7,SOUTH SHORE HOSPITAL,55 FOGG ROAD,SOUTH WEYMOUTH,MA,02190,42.24158900000001,-71.082651,7813408000,361.63,4
3d10019f-c88e-3de5-9916-6107b9c0263d,NEWTON-WELLESLEY HOSPITAL,2014 WASHINGTON STREET,NEWTON,MA,02462,42.331876,-71.208402,6172436000,1627.3500000000001,17
f4e7709c-02f6-37ca-aeea-8247d74e88e7,WINCHESTER HOSPITAL,41 HIGHLAND AVENUE,WINCHESTER,MA,01890,42.452752,-71.144319,7817299000,258.32,2
12c9daf5-a29c-36c9-ac55-28972463e566,BETH ISRAEL DEACONESS HOSPITAL-MILTON INC,199 REEDSDALE ROAD,MILTON,MA,02186,42.24158900000001,-71.082651,6176964600,16686.199999999964,214
226098a2-6a40-3588-b5bb-db56c3a30a04,GOOD SAMARITAN MEDICAL CENTER,235 NORTH PEARL STREET,BROCKTON,MA,02301,42.082543,-71.024638,5084273000,129.16,1
b7175ab4-bde5-3848-891b-579bccb77c7c,TUFTS MEDICAL CENTER,800 WASHINGTON STREET,BOSTON,MA,02111,42.33196,-71.020173,6176365000,258.32,2
d733d4a9-080d-3593-b910-2366e652b7ea,BRIGHAM AND WOMEN'S FAULKNER HOSPITAL,1153 CENTRE STREET,BOSTON,MA,02130,42.33196,-71.020173,6179837000,129.16,1
3bd5eda0-16da-3ba5-8500-4dfd6ae118b8,NORWOOD HOSPITAL,800 WASHINGTON STREET,NORWOOD,MA,02062,42.18736,-71.195955,5087721000,8523.929999999982,108
d5117822-5756-389d-9547-891a372d580f,FALMOUTH HOSPITAL,67 & 100 TER HEUN DRIVE,FALMOUTH,MA,02540,41.57072,-70.556682,5085485300,387.48,3
f99c74cc-7d1a-3f95-9a33-4a9357bf2f2a,UMASS MEMORIAL MEDICAL CENTER INC,55 LAKE AVENUE NORTH,WORCESTER,MA,01655,42.269478,-71.807783,5083341000,258.32,2
6f122869-a856-3d65-8db9-099bf4f5bbb8,LAHEY HOSPITAL & MEDICAL CENTER  BURLINGTON,41 & 45 MALL ROAD,BURLINGTON,MA,01803,42.503227,-71.201713,7817445100,4261.979999999994,53
465de31f-3098-365c-af70-48a071e1f5aa,METROWEST MEDICAL CENTER,115 LINCOLN STREET,FRAMINGHAM,MA,01701,42.307905,-71.436196,5083831000,516.64,4
1eaf97fa-9de6-38de-a9c4-6efe5dc574be,ST VINCENT HOSPITAL,123 SUMMER STREET,WORCESTER,MA,01608,42.269478,-71.807783,5083635000,464.9699999999999,4
8e00f524-3a5f-313e-9542-378dfc61193f,MARTHA'S VINEYARD HOSPITAL INC,ONE HOSPITAL ROAD  FIRST FL  WING 5   PO BOX 1477,OAK BLUFFS,MA,02557,41.45716,-70.556101,5086930410,258.32,2
956ccb85-bea0-30f9-af48-52f5dd95ff72,FRANCISCAN CHILDREN'S HOSPITAL & REHAB CENTER,30 WARREN STREET,BRIGHTON,MA,02135,42.33196,-71.020173,6172543800,1162.35,15
d7b11827-25f2-350b-bcd8-939fc59851b0,BOSTON CHILDREN'S HOSPITAL,300 LONGWOOD AVENUE,BOSTON,MA,02115,42.33196,-71.020173,6177356000,129.16,1
b7dc82e4-3595-391b-a897-495dd7e5cf38,PCP103,99 WALNUT ST,SAUGUS,MA,01906-1980,42.468432,-71.01394599999999,978-631-9010,7620.439999999994,59
79e14b44-8026-3599-b8ac-14813879825e,PCP297,307 MILL ST,HOLLISTON,MA,01746-1041,42.195951,-71.45343000000001,508-429-1905,4908.079999999997,38
eee23eb7-a476-37b0-9811-d57740145867,PCP1085,102 BRIDGE RD,SALISBURY,MA,01952-2410,42.844794,-70.841499,978-462-3287,4262.279999999998,33
fa7e6ef5-13fc-32eb-94b6-a2a925e59210,PCP1286,900 CUMMINGS CTR,BEVERLY,MA,01915-6184,42.556659,-70.84496,978-921-1335,6587.159999999995,51
dd1f04b3-54cd-3ff0-96e3-a9aec2078301,PCP1444,5 E MAIN ST,MERRIMAC,MA,01860-2005,42.838603000000006,-71.011997,978-346-4450,5941.359999999996,46
fb2bf7e7-4bba-3320-bfb4-6b1fc57a0670,PCP1702,1371 BEACON ST,BROOKLINE,MA,02446-4965,42.323853,-71.142003,617-232-2435,10461.959999999992,81
02da9e41-5656-33e0-be62-aff604c958d3,PCP2381,17 HENSHAW ST,BRIGHTON,MA,02135-2905,42.33196,-71.020173,617-363-99881,3358.159999999999,26
bc938b40-d8f2-3c87-877a-26071a128971,PCP3014,110 HOLTSHIRE RD,ORANGE,MA,01364-9736,42.605437,-72.292074,978-544-6699,4133.119999999998,32
18493754-0bc4-3653-89ba-fced6e9a2a79,PCP3280,18 MAIN ST,TOWNSEND,MA,01469-1300,42.66495,-71.712025,978-597-5227,4778.919999999997,37
d303f885-b64a-3c2c-b13f-36a97c2522bf,PCP3324,12 HEMLOCK PARK DR,GROTON,MA,01450-1450,42.61176,-71.565269,978-448-2872,3874.7999999999984,30
414083bc-a154-3b45-bfbf-397a568e2362,MALCOLM AND MARTIN GREENE OD PARTNERS,31 SPRING ST,WATERTOWN,MA,02472-3473,42.369451,-71.177925,617-924-3343,5683.039999999996,44
d7e1f7b8-5261-3ee6-9d13-3e47f57fa6c2,PCP3579,1318 BEACON ST,BROOKLINE,MA,02446-3793,42.323853,-71.142003,617-638-8853,1808.2400000000005,14
129f29ed-9183-311f-a596-9c762d8cb08c,PCP3741,655 BOSTON RD,BILLERICA,MA,01821-5338,42.559673,-71.260947,978-670-2706,4391.439999999998,34
0de9633c-54dd-39cb-947c-8ab5ecdf93a2,PCP3874,2 SHAKER RD,SHIRLEY,MA,01464-2561,42.573654,-71.640986,978-425-6666,7878.759999999994,62
b9c8d3c5-c419-3eb0-9122-0dea8e5664a3,PCP4083,BARRE OPTICAL,BARRE,MA,01005,42.418848,-72.10659799999999,978-355-2191,5941.359999999996,46
0df61196-c165-3212-9389-40d4bb4a39cb,PCP4391,540 MAIN ST,WINCHESTER,MA,01890-2940,42.452752000000004,-71.144319,617-331-3314,6845.479999999995,53
829380ee-2794-3710-a790-d547b74c9d3d,PCP4431,250 HAMPTON ST,AUBURN,MA,01501-2584,42.198708,-71.846006,508-832-4101,4778.919999999997,37
ad3a23c5-ee9b-361d-96ee-244364c9b63a,PCP4460,7 KIMBALL LN E,LYNNFIELD,MA,01940-2617,42.534146,-71.038333,978-290-7090,27898.559999999972,216
6ae741a1-f01a-398e-86f6-ec5fb6c32f14,PCP4675,20 TREMONT ST,DUXBURY,MA,02332-5315,42.044307,-70.70604499999999,781-934-0953,3099.8399999999992,24
98b63415-bc21-3f43-b5ad-b78fb98c023d,PCP4717,214 N MAIN ST,WEST BRIDGEWATER,MA,02379-1251,42.021617,-71.026717,508-587-2858,10720.279999999992,83
fda84fde-4ba6-3521-9bc4-3a1782419ebe,PCP4784,118 MAIN ST,WATERTOWN,MA,02472-4425,42.369451,-71.177925,617-924-8344,2454.04,19
f75bde75-e144-3ac3-9c56-9849a3eaad52,PCP4855,100 S MAIN ST UNIT C,MIDDLETON,MA,01949-2211,42.610513,-71.007118,978-390-1235,10203.639999999992,79
04689c7d-e935-3248-9956-b21e6aa1f2ea,PCP4983,385 WASHINGTON ST,QUINCY,MA,02169-5630,42.261006,-71.008988,617-479-1434,6974.639999999995,54
9c25213a-9c66-3175-b7ed-27bb9cfaee16,PCP5059,179 BEAR HILL RD,WALTHAM,MA,02451-1063,42.388921,-71.24226800000001,781-895-9500,6070.519999999996,47
9a66d253-fa81-3045-9df1-2844ad780dc0,PCP5060,112 MAIN ST,NORTHBOROUGH,MA,01532-1914,42.323342,-71.646236,508-393-72236,5295.559999999997,41
364661ff-4fcc-3d6e-89f8-93d2570f6c3c,PCP5112,338 BOYLSTON ST,NEWTON,MA,02459-2877,42.331876,-71.208402,617-584-8510,1033.28,8
56ed0ca7-04eb-35fe-928c-b3f90fea5e10,PCP5203,1234 BROADWAY,SOMERVILLE,MA,02144-1703,42.390445,-71.101033,781-608-6831,4133.119999999998,32
0ab8b96d-8968-34b7-b29f-975bccb6fb70,PCP5422,745 HIGH ST,WESTWOOD,MA,02090-2535,42.219645,-71.216768,781-775-3832,8395.399999999994,65
6092e2a8-bf40-3b65-9d03-9eb8e7e651c1,PCP5851,68 EVERGREEN ST,KINGSTON,MA,02364-1471,41.987196000000004,-70.74194200000001,781-585-8199,1679.0800000000004,13
3bb806d8-ae0d-37d4-af59-96efcc928ea3,PCP6043,213 WASHINGTON ST,GROVELAND,MA,01834-1008,42.7539,-71.015935,978-886-1423,904.1199999999999,7
ddd639be-74fd-3f52-8f40-04e2a4457ca3,PCP6114,440 HUMPHREY ST,SWAMPSCOTT,MA,01907-2544,42.468059000000004,-70.89126,781-598-6680,4520.599999999998,35
dcdb61cf-fcc7-3341-a1d3-f6674f1af2ee,PCP6318,506 STATE RD,N DARTMOUTH,MA,02747-1802,41.646686,-70.999158,508-984-4164,11236.919999999991,87
48f9895c-222b-3082-ab26-0b5220b07ab4,PCP6451,201 PARK AVE,WEST SPRINGFIELD,MA,01089-3366,42.125451,-72.649734,413-259-7437,6974.639999999995,54
4f7f7251-3c05-33ee-baa5-c581405022fc,PCP6612,12 OXBOW RD,NATICK,MA,01760-3108,42.284822,-71.348811,508-653-8941,1162.44,9
e9a3d0b3-e44a-3b9e-9540-5dd9bfaeee78,PCP6815,233 HARVARD ST,BROOKLINE,MA,02446-5017,42.323853,-71.142003,617-513-6254,6716.319999999995,52
ba57bf6d-0406-39d0-89db-38cb07f11f35,PCP6822,40 ENON ST,BEVERLY,MA,01915-1168,42.556659,-70.84496,978-922-7120,2066.5600000000004,16
10a9d347-0146-3fbf-b74d-8f085f1bc461,PCP6927,71 MAIN ST,WESTMINSTER,MA,01473-1472,42.5546,-71.90544,978-855-0645,2841.5199999999995,22
5d446658-c301-313e-9168-37d171e8a3af,PCP7004,55 HOSPITAL DR,WINCHENDON,MA,01475-1820,42.66816,-72.055644,603-680-1654,10849.439999999991,84
e447a2df-4bd5-34e4-a5f9-82f9da952fd5,PCP7166,38 SOUTHWEST CUTOFF UNIT B,NORTHBOROUGH,MA,01532-2159,42.323342,-71.646236,508-393-0890,6587.159999999995,51
a4054678-6bde-3fdf-b9c6-dac143aa9884,PCP7459,5 UPPER DOUGLAS LN,OAK BLUFFS,MA,02557,41.457159999999995,-70.556101,508-687-9320,4908.079999999997,39
973e7384-d05b-32ad-a8cc-c39191ee9150,PCP7483,152 N ST,PITTSFILED,MA,01201,42.452045,-73.26054,413-443-8480,20278.11999999998,157
f84f441a-9b3d-3fd4-aa87-4931f5362de4,PCP7496,68 TUPPER RD,SANDWICH,MA,02563-0537,41.7132,-70.485737,508-888-3800,3745.6399999999985,29
94577927-3283-3f8a-b231-016499899908,PCP7544,35 HAWES ST,NO DARTMOUTH,MA,02747-1929,41.646686,-70.999158,508-993-1651,3228.999999999999,25
aa1ac777-dca2-3d10-a84b-901df37cee5f,PCP7722,1368 BEACON ST,BROOKLINE,MA,02446-2800,42.323853,-71.142003,617-775-7301,3616.4799999999987,28
69723e24-a5ed-3203-8397-6027e67a8bc3,MEDFIELD EYE ASSOCIATES  INC,77 W MAIN ST,HOPKINTON,MA,01748-1684,42.224096,-71.54048900000001,508-497-9500,3874.7999999999984,30
95bfa81b-05fa-3b5c-9df6-27d82253a5ae,PCP7975,26 JEROME ST,MEDFORD,MA,02155-6712,42.423844,-71.10923100000001,617-290-2711,2066.5600000000004,16
af2a6f3d-aef7-3f88-81ae-493714aaabb6,PCP8081,144 NEWBURYPORT TPKE,ROWLEY,MA,01969-2132,42.721495000000004,-70.886637,978-948-8180,8266.239999999994,64
8a75791e-08c0-3064-80d1-b57bce7e4743,PCP8217,147 WOODCHESTER DR,NEWTON,MA,02467-1051,42.331876,-71.208402,617-527-4265,4908.079999999997,38
c50e0399-4b76-340a-8cf2-f9e8cedaf14c,PATHWAYS COUNSELING ASSOCIATES  INC.,134 MIDDLE ST,LOWELL,MA,01852-1878,42.63898,-71.321141,978-937-2696,8524.559999999994,66
6ffe62de-5d90-3cc7-be16-643a7496c817,PCP8458,601 AMHERST RD,SUNDERLAND,MA,01375-9466,42.466691,-72.546751,413-665-3336,5037.239999999997,39
5744801a-ad0d-323b-b525-32cf27098f5f,PCP8515,110 MANCHESTER RD,NEWTON,MA,02461-1123,42.331876,-71.208402,617-283-2216,4262.279999999998,33
27025636-b4ec-3b49-91df-baf82448b511,PRO REHAB INC PC,227 CHELMSFORD ST,CHELMSFORD,MA,01824-2305,42.597055,-71.3697,978-256-3300,4133.119999999998,32
92a04c8a-a179-38f0-8a4b-310f44933c3b,PCP8696,1051 BEACON ST,BROOKLINE,MA,02446-5622,42.323853,-71.142003,617-277-6505,6716.319999999995,52
98c716c1-1951-39a3-8c5e-fd57ac194208,PCP8861,378 WASHINGTON ST,SOUTH ATTLEBORO,MA,02703-5917,41.931653,-71.294503,508-761-5034,3099.8399999999992,24
6e21d2e1-b52e-38fa-8254-8a797651c2d0,PCP8941,130 COLLEGE ST,SOUTH HADLEY,MA,01075-1537,42.256208,-72.58103,413-519-3439,7103.799999999995,55
32836213-4ac7-3021-aad8-6383f3ced351,PCP9022,1 HOLLYWOOD DR,GRAFTON,MA,01536-1614,42.209151,-71.683644,508-839-3616,8653.719999999994,67
c4e60bf3-2144-36d1-8204-4247073f3370,PCP9065,32 BAKER ST,FOXBORO,MA,02035-1910,42.064024,-71.248401,508-930-6335,6845.479999999995,53
994e3d71-b1d7-353c-bee4-e111c409ca3d,PCP9114,254 ESSEX ST,SALEM,MA,01970-3411,42.499248,-70.898204,978-423-4818,2324.88,18
f80e8da0-ea2d-3310-938d-692b1f9db03c,PCP9230,22 SPEAR ST,QUINCY,MA,02169-4514,42.261006,-71.008988,617-770-4203,3616.4799999999987,28
8d8a2e7a-9572-3556-adc2-0cb1479f071f,PCP9301,240 CONCORD AVE,CAMBRIDGE,MA,02138-1337,42.376043,-71.11868,617-497-9267,6716.319999999995,52
8f345a31-6b91-352c-b956-e1d59e797568,PCP9564,181 NORTHAMPTON ST,EASTHAMPTON,MA,01027-1181,42.265435,-72.670813,413-575-6394,3874.7999999999984,30
469c451f-df37-3cab-ba2f-0b462d76dc90,PCP9589,62 DERBY ST,HINGHAM,MA,02043-3718,42.224319,-70.880673,781-740-8801,8137.079999999994,63
b3a36503-0436-317f-a5f0-d18aa5629349,PCP9953,77 PLAYSTEAD RD,MEDFORD,MA,02155-1451,42.423844,-71.10923100000001,781-332-6311,4003.959999999998,31
9be75bca-ba4a-34f5-a1dd-2cb1422c856a,PCP10013,120 ROUTE 28,WEST HARWICH,MA,02671-1220,41.693632,-70.105298,508-432-0020,6328.839999999996,49
a0beef0e-b8a5-3261-ad57-356e65749977,PCP10032,72 TAUNTON ST,PLAINVILLE,MA,02762-2132,42.012797,-71.336578,508-699-2228,6199.679999999996,48
06eff9e0-c5b4-39ed-8273-2f29cf5d3185,PCP10127,464 GRANITE AVE,MILTON,MA,02186-5625,42.241557,-71.082432,617-698-0998,4778.919999999997,37
f572718f-a826-3e8d-9269-07387910d3c5,PCP10192,413 HIGHLAND AVE,SOMERVILLE,MA,02144-2516,42.390445,-71.101033,617-623-1900,4778.919999999997,37
fafcf3db-7df5-3b11-8653-9032850edd62,PCP10220,680 ASHBURNHAM HILL RD,FITCHBURG,MA,01420-1866,42.601977000000005,-71.81586999999999,978-423-8907,6070.519999999996,47
65583707-3e0a-35e3-8c0a-37df9efe0b23,PCP10332,19 ANNASNAPPITT DR,PLYMPTON,MA,02367-1718,41.9591,-70.80275300000001,781-585-8492,2970.6799999999994,23
ed63a224-2de2-3e2f-8069-5cef058b4b83,PCP10354,10 BROOKHEAD AVE,BEVERLY,MA,01915-2006,42.556659,-70.84496,978-927-9216,6199.679999999996,48
22f35ea9-04e3-3ea7-92e3-c6bfd6530d81,PCP10403,85 WALSH ST,RANDOLPH,MA,02368-2648,42.178993,-71.052654,401-261-5131,5941.359999999996,46
749e78ef-1bd8-3053-b2d0-fca2210f4009,PCP10603,92 PROSPECT ST,GLOUCESTER,MA,01930-3710,42.62885,-70.685875,978-281-4067,5553.8799999999965,43
0e873907-9507-3317-a62f-2af8788a7c7b,PCP10764,1 MERRIMAC ST,NEWBURYPORT,MA,01950-2562,42.812141,-70.886646,978-462-20222,4133.119999999998,33
df98ec89-56ee-380f-9f1d-671ef1039720,THE EYE CARE CENTER  INC.,10 TECHNOLOGY DR,HUDSON,MA,01749-2791,42.389071,-71.545864,978-568-8228,9557.839999999993,74
fa705b4d-6d15-3d99-9232-808663837f8d,PCP11258,531 KING ST,LITTLETON,MA,01460-1279,42.535931,-71.490569,978-486-9898,4133.119999999998,32
0359e457-b383-3cd7-9abe-6a161ffc848a,PCP11511,120 ROUTE 28,WEST HARWICH,MA,02671-1220,41.693632,-70.105298,508-432-7002,12399.35999999999,96
1ec8b573-30d2-3ed7-aa18-3f3d438f1540,PCP11682,77 WARREN ST,BRIGHTON,MA,02135-3601,42.33196,-71.020173,617-953-4831,1679.0800000000004,13
a856a319-f212-34ed-a1e1-d94fd73e0c93,PCP11793,1105 LAKEVIEW AVE,DRACUT,MA,01826-4745,42.679722999999996,-71.30068,978-957-5665,4262.279999999998,33
043c2193-7fbd-3a5c-ad68-275230f1f3d4,PCP11873,DOVER MEDICAL PROFESSIONAL BUILDING,DOVER,MA,02030-2374,42.234159999999996,-71.291167,508-785-2319,5812.199999999996,45
fc6d7f11-099a-3295-a1d7-915ed6fcc4b9,PCP11893,124 HARVARD ST,BROOKLINE,MA,02446-6478,42.323853,-71.142003,617-277-3241,4133.119999999998,32
4d4f0156-9110-3edd-aa94-53f4d58fce4a,PCP11928,55 PUTNEY RD,LEVERETT,MA,01054-9770,42.468897999999996,-72.48457900000001,413-348-6257,4003.959999999998,31
3c044e24-776e-3bdc-9062-fb08a16bd7c1,PCP11979,1170 BEACON ST,BROOKLINE,MA,02446-3959,42.323853,-71.142003,617-632-7796,7103.799999999995,55
92a2baa4-3c1f-3479-9d37-47bb0598277f,PCP12009,1355 MAIN ST,HOLDEN,MA,01520-1060,42.355801,-71.862574,508-829-6731,2841.5199999999995,22
ca2ae8f7-a4b7-3104-8728-650cacb67acf,PCP12074,1350 MAIN ST,WALPOLE,MA,02081-1718,42.146285999999996,-71.255604,617-750-3169,4133.119999999998,32
daa4c408-5fc5-32a8-881e-12181e8b8598,PCP12132,11 PROSPECT ST,SHERBORN,MA,01770-1302,42.231947,-71.372963,508-545-1843,11882.71999999999,92
c2b6bbf7-dc90-3ba0-bdfe-3014e47d52a8,PCP12194,19 MUZZEY ST,LEXINGTON,MA,02421-5211,42.445221999999994,-71.23001500000001,781-862-8310,4908.079999999997,38
cb2fe104-f524-30c3-a7ed-22a9e19e4b7c,PCP12231,246 W ST,WARE,MA,01082-9749,42.275462,-72.280158,413-967-3017,7362.119999999994,57
0eba0f93-a5fa-30e3-a452-f54b842d1d33,PCP12293,53 LANGLEY RD,NEWTON CENTER,MA,02459-1945,42.331876,-71.208402,617-645-6885,6587.159999999995,52
7bc32bfa-af8c-334a-845c-71db9f063565,PCP12359,1538 TURNPIKE ST,NORTH ANDOVER,MA,01845-6207,42.673909,-71.091334,978-975-2107,3487.319999999999,27
2b841563-da17-3168-9c5d-954f3b5717f0,PCP13397,537 ROUTE 28 2G,HARWICH PORT,MA,02646-1894,41.670154,-70.06519399999999,508-237-2337,1937.4000000000005,15
a0ef452b-47f2-3955-81d5-6ad5a2da574a,PCP13640,874 TURNPIKE ST,NORTH ANDOVER,MA,01845-6118,42.673909,-71.091334,978-697-1137,5683.039999999996,44
cd2adec5-2598-3c48-88b5-75860fcdd58b,PCP13691,109 MASONIC HOME RD,CHARLTON,MA,01507-6301,42.133935,-71.968025,508-755-9051,4133.119999999998,32
fa120db4-e034-3fa3-a831-d343d5445bb8,PCP13750,315 CENTRAL ST,SAUGUS,MA,01906-2342,42.468432,-71.01394599999999,781-231-2292,4133.119999999998,32
3597e991-7fc3-3591-820f-9d5e84dda836,PCP13886,1419 BEACON ST,BROOKLINE,MA,02446-4808,42.323853,-71.142003,617-734-2128,4908.079999999997,38
ab2b53d3-1524-30dd-b44f-272e6f57a836,PCP13981,1395 N MAIN ST,RANDOLPH,MA,02368-1768,42.178993,-71.052654,781-961-7887,3358.159999999999,26
6236e299-a751-3819-8b06-a17004bdbbfd,BOSTON VISION WORKS INC,335 MAIN ST,SAUGUS,MA,01906-3143,42.468432,-71.01394599999999,781-233-9570,2583.2,20
63b12098-a29c-357d-b1c0-4dcc2f0b6d6c,PCP14226,250 BOSTON TURNPIKE,SHREWSBURY,MA,01545-5265,42.284766999999995,-71.714228,508-791-6809,4391.439999999998,34
59a3a46d-e206-3052-8c82-cbafc00cf1ba,PCP14572,512 MAIN ST,SHREWSBURY,MA,01545-6405,42.284766999999995,-71.714228,508-842-2797,14982.559999999987,117
75bca02f-95ff-3c58-8332-9b5b3f47db19,PCP14576,94 PLEASANT ST,ARLINGTON,MA,02476-6532,42.418721999999995,-71.163912,781-643-0310,5295.559999999997,41
588e03bd-91bc-3442-be9e-66c18ba36c0c,KHOURY CHIROPRACTC  INC.,116 MECHANIC ST,BELLINGHAM,MA,02019-1678,42.076682,-71.47449,508-966-3777,15111.719999999987,117
33fd47f8-8139-363e-a1b4-3ef254da7078,PCP14705,66 LEONARD ST,BELMONT,MA,02478-2512,42.395317,-71.180284,617-855-5161,5424.719999999997,42
26ea591f-d8ea-399b-821e-98d97e88c7fd,PCP14796,112 MAIN ST,NORTHBOROUGH,MA,01532-1914,42.323342,-71.646236,508-393-7223,5812.199999999996,45
f0a15912-b437-3e40-a642-ec6d0adc8c69,PCP15153,1 MEETING HOUSE RD,CHELMSFORD,MA,01824-2733,42.597055,-71.3697,978-250-8880,4003.959999999998,31
5fb63ea3-32ab-39c9-8414-1b88434ac999,PCP15307,10 SPRING ST,MARBLEHEAD,MA,01945-3314,42.495629,-70.83582,781-639-0010,6328.839999999996,49
57d9994b-1a85-3810-a731-27c8842f3704,PCP15501,99 CHURCH ST,LOWELL,MA,01852-2621,42.63898,-71.321141,978-458-6282,4262.279999999998,33
dfc444d9-2f40-3d7a-b755-27771b64e2c4,PCP15618,116 PLEASANT ST,EASTHAMPTON,MA,01027-2756,42.265435,-72.670813,413-695-6633,1808.2400000000005,14
438a54db-5c75-3b76-9357-9028a57babc4,PCP15785,356 MONTAGUE CITY RD,TURNERS FALLS,MA,01376-1830,42.597445,-72.555278,413-773-0009,6328.839999999996,49
ed117731-eb4f-34eb-bb17-cb40f7d20266,PCP15843,384 W RD,ALFORD,MA,01266-9756,42.254399,-73.42904,413-644-9755,7103.799999999995,55
f2f20354-8eb6-3389-aad4-1b389c8e8a19,PCP15991,31 PONDVIEW DR,OAK BLUFFS,MA,02557,41.457159999999995,-70.556101,508-693-4654,2841.5199999999995,22
ef93e7db-4347-3133-a6a0-2f33d8611a4a,PCP16465,132 CENTRAL ST,FOXBORO,MA,02035-2422,42.064024,-71.248401,508-543-9215,4003.959999999998,31
29564e82-e7f8-3aeb-8d9c-1e3fd73ca340,PCP16674,1 W UNION ST,ASHLAND,MA,01721-1463,42.257754999999996,-71.473526,508-881-4443,4133.119999999998,32
6e82ddef-8511-3f01-91fa-c210aefae551,PCP16952,4 STRAWBERRY HILL RD,ACTON,MA,01720-5757,42.483953,-71.43849499999999,978-264-2951,5812.199999999996,45
d0a5dc0d-efe6-3172-b0ca-db2d437248d9,PCP17006,3040 FALMOUTH RD,OSTERVILLE,MA,02655-1249,41.662727,-70.357208,508-428-3162,3616.4799999999987,28
6002ae67-ed4e-36a4-9e76-5eefc37255cb,PCP17024,755 GRATTAN ST,CHICOPEE,MA,01020-1238,42.175668,-72.572257,413-532-1040,5812.199999999996,46
cfefc3e1-bedd-379a-a1ff-33e84c2e39f9,PCP17060,793 MAIN RD,WESTPORT,MA,02790-4358,41.579794,-71.081822,781-789-1236,4649.7599999999975,36
cf66ee2f-b2a1-3bc2-990c-cdd7fa71f385,PCP17071,169 PINE ST,NATICK,MA,01760-1332,42.284822,-71.348811,508-647-0100,5424.719999999997,42
7231e553-970f-3fbb-81ab-ce83f81bbd09,PCP17097,10 CEDAR ST,WOBURN,MA,01801-6365,42.488769,-71.154438,781-454-5974,4133.119999999998,32
511ccbe8-3167-33f0-9b5b-0748e30bcb38,PCP17104,440 BOYLSTON ST,BROOKLINE,MA,02445-6005,42.323853,-71.142003,617-504-5857,7232.959999999995,56
261b14f5-39d7-37eb-a8b7-606014d8eff3,PCP17774,493 ESSEX ST,LAWRENCE,MA,01840-1241,42.700272999999996,-71.161357,978-686-7111,3099.8399999999992,24
6d7e1051-7a28-33f6-9c50-608a10792892,PCP17777,44 STERLING ST,WEST BOYLSTON,MA,01583-1217,42.369417,-71.785036,508-835-6200,4649.7599999999975,36
17858e6e-2c6a-3458-8ef6-2c0dd5d834cf,PCP17778,840 MAIN ST,MILLIS,MA,02054-1542,42.173103000000005,-71.36375600000001,508-376-4262,3874.7999999999984,30
bee3973f-125a-3713-807e-8e9c0f9e304e,PCP17791,103 ELM ST,MILLBURY,MA,01527-2601,42.192246000000004,-71.777649,508-865-9951,14595.079999999987,113
e09dd0b8-076e-37d6-b0b3-d098cadbdd4a,PCP17817,60 MUNSON MEETING WAY,CHATHAM,MA,02633-1992,41.621629,-69.98195600000001,508-945-3131,6070.519999999996,47
82a283ca-861f-34a6-9e6c-c3d1c65d3899,SOUTH SHORE PHYSIATRY AND SPASTICITY MANAGEMENT,250 POND ST,BRAINTREE,MA,02184-5351,42.205416,-71.00216800000003,781-348-2202,4520.599999999998,35
66fd7d22-1a05-3fb8-810b-0bd5c7e6fadf,PCP18053,125 IPSWICH RD,TOPSFIELD,MA,01983-1549,42.641379,-70.94344,978-887-0008,7232.959999999995,56
74036847-72aa-3eef-81ad-d672e3ff5cba,PCP18088,185 MAIN ST,SPENCER,MA,01562-1755,42.247211,-71.991867,508-885-0788,2841.5199999999995,22
aea8a4a7-3a98-3b66-ace9-9f1e5c294d92,PCP18143,16 CLARKE ST,LEXINGTON,MA,02421-4988,42.445221999999994,-71.23001500000001,781-674-2500,3358.159999999999,26
544c9eea-d421-300f-a68d-b8226a3885ec,PCP18244,475 SCHOOL ST,MARSHFIELD,MA,02050-2034,42.115139,-70.71033100000001,781-837-8511,7362.119999999994,57
3e54a0c1-21ed-34ea-9696-e64a09626bcc,PCP18347,33 PILGRIM PATH,CARLISLE,MA,01741-1840,42.53662,-71.36183199999999,978-371-9797,4778.919999999997,37
79938991-9c88-32be-b31f-3f51d2a15784,PCP18807,15 POND BROOK CIR,WESTON,MA,02493-1425,42.360502000000004,-71.303433,617-620-7749,6974.639999999995,54
48055261-4c5f-393b-98be-42b54ab45508,PCP18871,1350 BELMONT ST,BROCKTON,MA,02301-4430,42.082543,-71.024638,508-264-9007,12657.67999999999,98
a84ebc63-bfbf-39c6-a4c8-7e6e86e88bb2,PCP18873,120 COURT ST,PLYMOUTH,MA,02360-3826,41.897892,-70.62403,508-944-7106,6328.839999999996,49
abb94f2e-8380-31e6-95c7-5e5aaec14bec,PCP19003,17 DORSET RD,NEWTON,MA,02468-1457,42.331876,-71.208402,617-969-0425,4003.959999999998,31
3411f709-55c9-3006-a79f-50c052aa070d,PCP19101,84 N MAIN ST,ANDOVER,MA,01810-3835,42.648044,-71.161751,978-470-3453,9816.159999999993,77
125815a1-aa5c-3172-acec-6f95df5d4add,PCP19263,57 BEDFORD ST,LEXINGTON,MA,02420-4543,42.445221999999994,-71.23001500000001,781-861-18187,5037.239999999997,40
3f918f20-ac66-387a-9dfc-91f94d08330b,PCP19300,5 WATSON RD,BELMONT,MA,02478-3924,42.395317,-71.180284,617-484-5010,5037.239999999997,39
1f8bf1bc-2c07-3ea6-9782-0a8eb036ba4f,PCP19450,741 SALEM ST,LYNNFIELD,MA,01940-2344,42.534146,-71.038333,781-592-2225,5683.039999999996,44
14ea679c-3de3-3c8d-abe1-9d899c8f34d3,PCP19759,41 MAPLEWOOD AVE,NEWTON CENTER,MA,02459-2527,42.331876,-71.208402,617-332-8359,3616.4799999999987,28
86f868e9-3325-3019-98d9-34ca2dc11f20,TANZMAN MASELLI AND ASSOCIATES PC,151 ASHLAND ST,N ADAMS,MA,01247-4522,42.675549,-73.11810799999998,413-662-2020,5166.399999999997,40
76414819-cc4b-3ceb-b54a-89481b9fb641,PCP19822,7 CLIFTON HEIGHTS LN,MARBLEHEAD,MA,01945-2704,42.495629,-70.83582,781-631-8581,4649.7599999999975,36
1607e74e-eb20-3211-9558-1005aac29c94,PCP19836,1 PLEASANT ST,MAYNARD,MA,01754-1360,42.425955,-71.45625600000001,978-897-8276,9041.199999999993,70
4cd7de25-382b-30f8-94d5-e353e3eca86a,PCP20489,2 WHITING RD,DOVER,MA,02030-2451,42.234159999999996,-71.291167,508-785-1770,2712.3599999999997,21
d853ba63-4199-322c-be7d-b53c150094fb,PCP20808,17 NORWOOD POND RD,BEVERLY,MA,01915,42.556659,-70.84496,978-927-6438,6974.639999999995,54
fc366e37-d120-33a3-9d13-a2871951a9b9,PCP20826,765 NEWMAN AVE,SEEKONK,MA,02771-4421,41.839797999999995,-71.31804699999999,508-761-6334,7362.119999999994,57
036f1255-5cd0-357e-a68d-80470fb3c7dd,PCP20982,1129 BEACON ST,BROOKLINE,MA,02446-5532,42.323853,-71.142003,617-277-1344,8266.239999999994,64
a9dc0a17-2b47-346a-ad1b-10bebf78ba76,PCP20995,71 ADAMS ST,MILTON,MA,02186-3431,42.241557,-71.082432,617-698-22521,3874.7999999999984,30
5b0407ae-bb50-3416-9b19-3aa91666924e,PCP21224,275 TURNPIKE ST,CANTON,MA,02021-2357,42.175737,-71.125385,781-724-5439,7362.119999999994,57
43ffaa09-80df-3fed-a263-024150ede443,PCP21226,296 N MAIN ST,EAST LONGMEADOW,MA,01028-1878,42.062378,-72.498111,413-206-8349,3487.319999999999,27
79d518b4-1a2c-3625-95c8-9c2d9840e321,PCP21276,130 COUNTY RD,IPSWICH,MA,01938-2550,42.695981,-70.83564799999999,978-846-1066,1033.28,8
e8f41f48-b406-34dd-ab90-90f065c7f638,PCP21423,78 BURNCOAT ST,WORCESTER,MA,01605-1350,42.269478,-71.807783,508-414-5469,4778.919999999997,37
0f26cfb1-e277-3041-b78c-33aeaa79f72c,PCP21492,115 MILL ST,BELMONT,MA,02478-1064,42.395317,-71.180284,617-855-3058,2583.2,20
fb8c2c36-8f65-355e-9ca4-d4771d4dda08,JEFFREY L MORRILL OD PC,480 W CENTRAL ST,FRANKLIN,MA,02038-2902,42.084858,-71.41057099999998,508-528-2040,8395.399999999994,65
4fd66406-3438-3953-9644-caef76160bac,PCP22021,211 COCHITUATE RD,FRAMINGHAM,MA,01701-4673,42.307905,-71.436196,508-380-8680,5941.359999999996,46
5519120c-af24-3f39-bb6c-b7fc0b50c8e6,PCP22063,630 S MAIN ST,LANESBOROUGH,MA,01237-9726,42.535857,-73.24113299999999,413-236-0995,5812.199999999996,45
81afbc39-a91e-3160-a259-83a75eea2215,ANDOVER EYE ASSOCIATES  INC,138 HAVERHILL ST,ANDOVER,MA,01810-1501,42.648044,-71.161751,978-475-0705,1808.2400000000005,14
d8b927a2-8e71-3b43-98ae-8ed2c7c724c9,PCP22470,NEIGHBORHOOD PEDIATRICS,BILLERICA,MA,01821-3757,42.559673,-71.260947,978-667-7711,3745.6399999999985,29
955d89fc-39eb-3c5c-b69c-564cb302ec76,PCP22656,401 STOCKBRIDGE RD,GREAT BARRINGTON,MA,01230-1972,42.221851,-73.333044,413-717-1840,6587.159999999995,51
9c87cfde-bd50-3911-85fe-1fea5bfcf49e,PCP23049,733 CHAPIN ST,LUDLOW,MA,01056-1900,42.183577,-72.457812,413-583-3308,6845.479999999995,53
c0388410-92ac-3f24-9bf7-8015960436e3,WILLIAM H LANGFIELD JR OD PC,598 COUNTY ST,SOMERSET,MA,02726-4204,41.738479,-71.165065,508-676-8167,1937.4000000000005,15
d521fff1-507b-3f0c-b3d4-5ae2650e1e9b,PCP23399,770 POND ST,FRANKLIN,MA,02038-2725,42.084858,-71.41057099999998,508-934-6195,4003.959999999998,31
6e40c3dd-cb33-374c-aff1-7c40b3bae207,PCP23534,31 MAIN ST,STOCKBRIDGE,MA,01262-9701,42.301969,-73.323024,413-298-7146,7362.119999999994,57
74086554-9256-3f1f-9bfb-ef7237391d25,PCP23574,104 WHALON ST,FITCHBURG,MA,01420-7185,42.601977000000005,-71.81586999999999,978-345-5200,516.64,4
997e28d8-7a7c-35f4-8ffb-c632d6000544,PCP23698,5 WOODLAND RD,STONEHAM,MA,02180-1715,42.474208000000004,-71.097665,781-979-7000,5037.239999999997,39
ee1a65b6-9cdc-32ca-a8ea-8c1b1bfca928,ENCOMPASS CARE COMPANY INC,2 PARK CENTRAL DR,SOUTHBOROUGH,MA,01772-1777,42.299625,-71.52842700000001,508-481-8346,8524.559999999994,66
5eeacb40-eaaa-3a42-b208-0b257414c2a0,PCP25231,191 LOWER ST,SHELBURNE FLS,MA,01370-9402,42.609509,-72.74698000000002,413-625-9530,2970.6799999999994,23
0a22110e-22c1-3679-aff0-f8a849ca8f5e,PCP25386,366 MASS AVE,ARLINGTON,MA,02474-6731,42.418721999999995,-71.163912,781-643-7020,4003.959999999998,31
279b2a85-ab64-3dec-90df-fbca8b479db5,PCP25692,48 CHERRY ST,WENHAM,MA,01984-1313,42.600633,-70.883303,978-473-6078,3228.999999999999,25
d37c9ec2-6718-3aa8-bd22-90824397a079,PCP26122,11 GROVE ST,HOPKINTON,MA,01748-2595,42.224096,-71.54048900000001,508-435-3066,1679.0800000000004,13
e89fc67f-7cf0-3687-bf77-b4afa1a88fd8,PCP26392,183 W STATE ST,GRANBY,MA,01033-9611,42.244949,-72.50014300000001,413-222-0998,14465.919999999987,112
c16e25ee-c131-37e5-bcb0-c1b7dc520d97,PCP26503,441 W ST,AMHERST,MA,01002,42.363534,-72.50729100000001,413-256-0550,3616.4799999999987,28
9dc2efa2-a015-3af2-a9aa-077cbb862801,PCP26937,60 ISLAND ST,LAWRENCE,MA,01840-1810,42.700272999999996,-71.161357,978-691-5561,9041.199999999993,70
841a1423-b723-32c7-a512-161310612a3e,MOUNT HOPE PHYSICAL THERAPY,1738 GAR HWY,SWANSEA,MA,02777-3906,41.758163,-71.21418100000001,508-379-0090,3487.319999999999,27
1055cb51-3d14-3737-b4a8-0203cd752ac9,PCP27216,20 LONG MEADOW RD,LINCOLN,MA,01773-4810,42.425506,-71.310812,781-259-3434,5037.239999999997,39
aaf9b793-71b4-346d-baea-62b744d94494,PCP27271,537 ROUTE 28,HARWICH PORT,MA,02646-1894,41.670154,-70.06519399999999,508-430-8672,5295.559999999997,41
04637f85-4588-3efd-99b6-7bf79416f3cd,CENTER FOR LIFE SOLUTIONS,114 WALTHAM ST,LEXINGTON,MA,02421-5487,42.445221999999994,-71.23001500000001,781-862-0890,3358.159999999999,26
28708659-b360-34a9-8a97-8a063da6e9e0,AUDIOLOGY AND HEARING SOLUTIONS  INC,955 MAIN ST,WINCHESTER,MA,01890-4303,42.452752000000004,-71.144319,781-218-2225,4133.119999999998,32
a35e0bb4-e675-3912-86d6-4cb0e00a4a23,PCP27497,115 MILL ST,BELMONT,MA,02478-1064,42.395317,-71.180284,617-855-3679,11495.23999999999,89
6b53ee2b-1c03-3be0-8224-9b5514a0c971,PCP27919,4238 WASHINGTON ST,ROSLINDALE,MA,02131-2517,42.33196,-71.020173,617-327-1942,13174.319999999989,102
d0d400c3-d5b6-356a-ba22-6e7b154cb2f7,PCP28008,844 FRANKLIN ST,WRENTHAM,MA,02093-1223,42.052671000000004,-71.356858,508-384-0777,6199.679999999996,48
43b0ced9-86dc-3a28-a834-18675130d009,PCP28044,70 BROADWAY ST,WESTFORD,MA,01886-2148,42.585541,-71.44025,617-480-7357,6974.639999999995,54
d224247d-6fc0-395e-9bd2-b4c325d55b5d,PCP28161,162 GREAT RD,ACTON,MA,01720-5760,42.483953,-71.43849499999999,978-264-0060,3487.319999999999,27
2f00d1cf-c489-345f-9747-16b68f881b70,PCP28434,1093 BEACON ST,BROOKLINE,MA,02446-5623,42.323853,-71.142003,617-734-6614,4520.599999999998,35
f09fba12-a185-3d6e-8fa7-eeb7e037ed0c,PCP28483,175 DERBY,HINGHAM,MA,02043-4007,42.224319,-70.880673,781-588-0850,4520.599999999998,35
a5816e38-d79c-359b-b920-84a4c3f4667a,PCP28807,223 CHIEF JUSTICE CUSHING HWY,COHASSET,MA,02025-1416,42.262428,-70.79888299999999,781-383-0860,4391.439999999998,34
b7f0f20c-c4b1-3f26-a343-0344e35e9d37,PCP28833,22 HILLIARD ST,CAMBRIDGE,MA,02138-4972,42.376043,-71.11868,617-497-9027,6716.319999999995,52
fc6a3ef0-a623-3c61-b432-d1cc4e334892,PCP28875,2 DUNDEE PARK DR,ANDOVER,MA,01810-3725,42.648044,-71.161751,978-475-6950,5941.359999999996,46
ad88ea68-1b6a-322b-9f8b-62dc31195ee1,PCP28938,28 GREEN ST,NEWBURY,MA,01951-1721,42.770406,-70.872417,978-465-0959,1033.28,8
4b87a668-310c-315f-a9d7-9cfa3beb98b9,PCP29010,36 WOBURN ST,READING,MA,01867-2973,42.535183,-71.105423,617-905-4331,6199.679999999996,48
09e2ce8c-5e3b-3e90-8927-dd1667c58b02,PCP29123,1101 BEACON ST,BROOKLINE,MA,02446-5587,42.323853,-71.142003,617-262-7600,5424.719999999997,42
cd1f5054-2a98-3665-94db-572a81a2e874,PCP29200,300 W MAIN ST,NORTHBOROUGH,MA,01532-2132,42.323342,-71.646236,508-366-77072,7362.119999999994,57
685479cf-0f10-39e6-98ad-219c1e565e48,PCP29451,2 ELM SQUARE,ANDOVER,MA,01810-3668,42.648044,-71.161751,978-474-5004,3874.7999999999984,30
595ff4c9-8479-3ae4-85e8-ccf9ff88ed0e,PCP29457,681 SIMONDS RD,WILLIAMSTOWN,MA,01267-2105,42.695743,-73.22211800000001,413-458-9600,3616.4799999999987,28
9334d14a-9398-36bf-9932-0945c7815de1,PCP29488,16 CLARKE ST,LEXINGTON,MA,02421-4938,42.445221999999994,-71.23001500000001,781-863-5115,1420.7600000000002,11
b165f308-d1b5-38a8-9fc8-63091a93f25c,PCP29637,480 ADAMS ST,MILTON,MA,02186-4914,42.241557,-71.082432,508-759-7752,5037.239999999997,39
2fc1309f-e717-3838-864f-2ddaf14d1a3e,PCP29918,50 TRAPELO RD,BELMONT,MA,02478-4465,42.395317,-71.180284,617-855-3889,7491.279999999994,58
7cdf7420-c927-3f88-9c4b-712077a43669,PCP29927,529 MAIN ST,CHARLESTOWN,MA,02129-1119,42.33196,-71.020173,617-952-6382,4133.119999999998,32
c74fe4a4-59ef-378a-af0a-49427c8dac6a,PCP30010,22 SUMMER ST,WESTBOROUGH,MA,01581-1565,42.268426,-71.613309,508-366-1717,9299.519999999993,72
028b5b8e-40d9-381f-957f-0ed3e4503b4a,PCP30031,167 DWIGHT ROAD,LONGMEADOW,MA,01106-1769,42.047565000000006,-72.57113000000001,413-525-2166,14207.599999999988,110
e80d507f-003e-34e0-92dc-fb5b6417de99,PCP30237,465 MAIN ST,ROWLEY,MA,01969-1115,42.721495000000004,-70.886637,978-948-5015,7362.119999999994,57
3aa3a744-7d82-38fc-a8b8-87a4f1ab78de,PCP30550,1 PROSPECTOR RD,BILLERICA,MA,01821-3046,42.559673,-71.260947,978-667-8977,9816.159999999993,76
00c76a84-257b-3728-b782-4b2526a361b3,PCP30634,24 CARROLL DR,FOXBOROUGH,MA,02035-1559,42.061338,-71.245802,508-315-9021,21828.03999999998,169
ac06e0ac-ff61-30aa-9a9d-7856c2a6495c,PCP30726,162 COBBLE LANE,SHEFFIELD,MA,01257-0274,42.10365,-73.359887,413-229-3634,645.8,5
dd5d6e99-ab67-3060-871d-0106ef6820d7,PCP30783,1900 W PARK DR,WESTBOROUGH,MA,01581-3919,42.268426,-71.613309,508-983-1425,2454.04,19
e613f5a1-7588-3efe-8701-fa9baf3241ff,PCP31073,338 TREMONT ST,REHOBOTH,MA,02769-2034,41.846878000000004,-71.24486999999999,508-223-3434,7620.439999999994,59
4f66249a-0fdc-32f9-a0e3-7607f283b7e0,PCP31539,599 CANAL ST,LAWRENCE,MA,01840-1244,42.700272999999996,-71.161357,978-687-6488,4649.7599999999975,36
0517fca3-9416-3b31-a5b0-4921fe5bf34b,PCP31575,2 CTR ST,GROVELAND,MA,01834-1001,42.7539,-71.015935,978-914-7733,7362.119999999994,57
af352bb6-eb59-3fd0-b9fc-cdaf7f4c993d,PCP31640,468 GREAT RD,ACTON,MA,01720-4187,42.483953,-71.43849499999999,978-263-1103,5166.399999999997,40
8842f530-28b0-3643-8753-4dbed307a6ea,PCP32121,47 -49 CENTRAL ST,PEABODY,MA,01960-4375,42.534279,-70.969782,978-595-2108,5553.8799999999965,43
5ae1f3b4-184f-3e3b-87ea-40a71a36cb74,PCP32208,56 N MAIN ST,FALL RIVER,MA,02720-2132,41.725351,-71.094162,508-673-3133,9945.319999999992,77
b2671c0f-9623-3d36-b42c-3cb5f5dea42f,PCP32258,4 MILLBROOK DR,WILBRAHAM,MA,01095-2706,42.126883,-72.430952,413-596-9096,6845.479999999995,53
4ffdf970-07db-3fd5-9246-a6c3626c1cb4,PCP32327,475 FURNACE ST,MARSHFIELD,MA,02050-2309,42.115139,-70.71033100000001,781-834-9585,6199.679999999996,48
4d9e063a-001a-3050-b185-3f53e1763ae4,PCP32637,1476 G DRIFT RD,WESTPORT,MA,02790-1620,41.579794,-71.081822,508-636-6600,3616.4799999999987,28
000ea339-3b3e-35be-b475-bd129c194e56,PCP32703,25 OLD WESTPORT RD,DARTMOUTH,MA,02747-2513,41.56651,-70.958229,508-990-9922,4649.7599999999975,36
cdfe3787-c615-3d92-b149-08456485e215,PCP32820,881 S ST,FITCHBURG,MA,01420-6252,42.601977000000005,-71.81586999999999,978-345-7705,5553.8799999999965,43
88b776b1-23b8-33b6-9b84-b5957ce4790b,PCP32843,80 UPLAND RD,SHARON,MA,02067-1748,42.108463,-71.185182,781-784-8372,3616.4799999999987,28
af315820-b829-31a7-8289-3539bdfbd36f,PCP32940,32 AMHERST ST,ARLINGTON,MA,02474-3409,42.418721999999995,-71.163912,781-646-8450,10461.959999999992,81
b1516ff8-952b-3f90-a485-e43e29cbf469,PCP33041,14 MAIN ST,SOUTHBORO,MA,01772-1614,42.272062,-71.522795,508-787-9713,16919.959999999985,131
789eb815-c0ab-31ca-8b84-0ce00727ad97,ADAMS PHYSICAL THERAPY  LLC,1 BERKSHIRE SQ,ADAMS,MA,01220-1300,42.62556,-73.119828,413-743-2600,9428.679999999993,73
da2f2caf-8b77-3e73-aa47-e9de682a2928,PCP33371,22 SPEAR ST,QUINCY,MA,02169-4514,42.261006,-71.008988,617-472-5428,4262.279999999998,33
bb8c7fc3-4b76-3dec-a393-93f3fea083ee,PCP33465,142 MAIN ST,GROTON,MA,01450-4267,42.61176,-71.565269,978-448-3300,2970.6799999999994,23
c8237a24-4ce9-3ecb-8b16-fb6459c8bc7a,PCP33589,14 BESSOM ST,MARBLEHEAD,MA,01945-2329,42.495629,-70.83582,617-523-2766,1033.28,8
59631983-a65f-3984-bddc-a00e5e9b64d7,PCP33856,531 KING ST,LITTLETON,MA,01460-1279,42.535931,-71.490569,978-486-0009,5683.039999999996,44
da40c5d2-2914-3a09-8351-5f6a29fdf635,PCP34316,17 HENSHAW ST,BRIGHTON,MA,02135-2905,42.33196,-71.020173,617-254-0800,3874.7999999999984,30
266f0172-9a04-3eca-9102-72702a2afff4,PCP34346,17 HENSHAW ST,BRIGHTON,MA,02135-2905,42.33196,-71.020173,617-254-3165,5683.039999999996,44
819670c7-a9b8-3572-b97b-d6330f81fd5b,VANTAGE SPORTS AND REHAB  LLC,130 SOUTHAMPTON RD,WESTFIELD,MA,01085-1370,42.138838,-72.755911,413-237-0211,3745.6399999999985,29
dd43b798-6c99-3cdb-bd19-65f1cc2a370d,PCP34565,410 A SWAMP RD,RICHMOND,MA,01254-0428,42.383497,-73.359187,413-698-8123,5424.719999999997,42
ecef129d-fa59-36a2-8f2e-123cf8e52915,PCP34655,1107 MAIN ST,SOUTH WEYMOUTH,MA,02190-1513,42.206676,-70.94584499999998,781-337-6600,4908.079999999997,38
e894bbb7-873f-3efc-872d-6fe45fd6f7f6,BROOKSIDE COUNSELING ASSOCIATES LLC,62 DERBY ST,HINGHAM,MA,02043-3718,42.224319,-70.880673,781-741-4600,4003.959999999998,31
bec62824-70a4-35de-a763-ec7f1f6df992,PCP34947,283 MAIN ST,KINGSTON,MA,02364-1910,41.987196000000004,-70.74194200000001,781-585-0585,5166.399999999997,40
54c69f08-de68-349a-a16c-6a7a9b21b817,PCP35119,170 POND RD,WEST TISBURY,MA,02575,41.394406,-70.656447,508-696-9171,8524.559999999994,66
cbf0631c-f5cf-3bd2-93ed-f05c613183f0,PCP35161,73 SUMMER ST,HINGHAM,MA,02043-1963,42.224319,-70.880673,781-749-3365,3099.8399999999992,24
bf7a1f3f-2d9b-329d-ba36-b89628abd8f5,PCP35165,225 BOSTON ST,LYNN,MA,01904-3124,42.474862,-70.96218499999999,781-592-3183,3745.6399999999985,29
e2c63b97-bebc-31b1-ac8b-72ace3547669,BILLERICA CHIROPRACTIC OFFICE P.C.,25 BRIDGE ST,BILLERICA,MA,01821-1023,42.559673,-71.260947,978-667-1932,6328.839999999996,50
d467932b-d9de-36d1-afa8-45e09d955da0,PCP35350,320 WASHINGTON ST,BROOKLINE,MA,02445-6873,42.323853,-71.142003,617-734-3572,3487.319999999999,27
31de0e39-9682-38e8-8141-57854071efca,PCP35738,26 TRAPELO RD,BELMONT,MA,02478-4457,42.395317,-71.180284,617-484-3956,7103.799999999995,55
ecdc917d-a909-3a96-81b7-d6463b45afa5,CHICOPEE EYECARE  P.C.,113 CTR ST,CHICOPEE,MA,01013-1667,42.175668,-72.572257,413-592-7777,3745.6399999999985,29
9ad15150-45c8-316c-8a48-4028fe09b338,MEDFORD CHIROPRACTIC CENTER,314 MAIN ST,MEDFORD,MA,02155-6160,42.423844,-71.10923100000001,781-396-1070,4391.439999999998,34
8b8d7dac-9dde-3423-9bce-a8a08d1058c2,PCP35897,742 MASSACHUSETTS AVE,ARLINGTON,MA,02476-4712,42.418721999999995,-71.163912,781-648-8070,3745.6399999999985,29
fd55b97b-a84f-34f7-a2ac-18385fd65745,PCP36055,300 MOUNT AUBURN ST,CAMBRIDGE,MA,02238-5211,42.376043,-71.11868,617-864-1924,2841.5199999999995,22
1ba1db44-8800-306d-abea-7e29954a65aa,ABSOLUTE HEALTH CHIROPRACTIC PC,46 S ST,WRENTHAM,MA,02093-1527,42.052671000000004,-71.356858,508-384-0944,12399.35999999999,96
3fc6ac81-4751-300e-86de-4568318e4cdf,PCP36486,1075 WASHINGTON ST,WEST NEWTON,MA,02465-2185,42.331876,-71.208402,617-969-9702,3616.4799999999987,28
e04fe0dc-e319-3833-9c46-707f2abf9669,GEORGE J DUCACH DPM PC,449 ROUTE 130,SANDWICH,MA,02563,41.7132,-70.485737,508-888-8338,4778.919999999997,37
e4985463-921d-38b5-a6dc-c2f8f78a884f,PCP37016,25 MARSTON ST,LAWRENCE,MA,01841-2355,42.700272999999996,-71.161357,978-687-2586,3745.6399999999985,29
122f0348-0144-39ca-a07c-e753c7a6dba2,PCP37108,1563 FALL RIVER AVE,SEEKONK,MA,02771-3736,41.839797999999995,-71.31804699999999,508-336-6680,7749.599999999994,60
502dd65a-e826-3bca-89bb-448b81ddbc15,PCP37168,39 PLYMOUTH ST,HOLBROOK,MA,02343-1510,42.140346,-70.997861,781-767-4207,13045.159999999989,102
cd1de71e-98d1-3cba-8fd2-2b20331ff03f,PCP37542,589 DARTMOUTH ST,S DARTMOUTH,MA,02748-2516,41.661303,-70.937913,508-997-5636,5037.239999999997,39
4471b385-a75d-35a1-838a-30a0909de267,PCP37644,136 GARDNER ST,HAMILTON,MA,01936,42.626222999999996,-70.85723,978-969-3744,2324.88,18
cb75be4d-7394-3ebd-9930-4d4d3b27d82e,PCP37904,22 WOBURN ST,READING,MA,01867-3074,42.535183,-71.105423,781-944-1600,7620.439999999994,59
2a1a9034-e2e6-3738-ad4f-627118cc808f,PCP39028,36 ADAMS ST,QUINCY,MA,02169-2087,42.261006,-71.008988,617-773-0711,4908.079999999997,38
7a3fa04c-a39d-32f9-8578-d4db76e877aa,PCP39400,9 G OSMAN BABSON RD,GLOUCESTER,MA,01930-1880,42.62885,-70.685875,978-282-7400,4520.599999999998,35
819507f6-772a-3a2c-ac1d-d6b806531744,PCP39516,3003 CRANBERRY HWY B,E WAREHAM,MA,02538-1354,41.793699,-70.638745,508-295-2661,4262.279999999998,33
905f802e-1713-3ccb-92b5-0b1a137fbb9b,PCP39668,5 PLIMPTON RD,SHARON,MA,02067-1627,42.108463,-71.185182,781-784-4643,5812.199999999996,45
db6c9e2a-949f-3ccb-87fd-a2eeb0bdf5f1,PCP40864,87 WASHINGTON ST,BOXFORD,MA,01921-1240,42.683108000000004,-71.01833,617-893-8807,2841.5199999999995,22
b76d86f7-5e55-3d50-b910-2491c1a39d6a,PCP41983,56 DRIFTWAY DR,SCITUATE,MA,02066-4533,42.205062,-70.74297800000001,781-545-6565,6328.839999999996,49
2d2c6145-767c-3b49-8dcc-fa3298d1cd67,CHELMSFORD DERMATOLOGY PC,3 VILLAGE SQ,CHELMSFORD,MA,01824-2712,42.597055,-71.3697,978-256-4151,6328.839999999996,49
5f3b6a8a-99a4-3564-bc7f-186b79d040db,TOTAL HEALTH CARE  INC.,2 REEDSDALE RD,MILTON,MA,02186-3324,42.241557,-71.082432,617-698-0715,4133.119999999998,32
db6e0cea-70b9-3cab-b8fe-1bd1b4b649c3,PCP42340,69 MALDEN ST,REVERE,MA,02151-2234,42.421005,-70.99036,781-284-3200,7362.119999999994,57
5f6d0067-17cb-3327-9690-86f6f6bbdc3e,SPECHT ORTHOPEDIC INC,207 SWANSEA MALL DR,SWANSEA,MA,02777-4120,41.758163,-71.21418100000001,508-675-3200,5941.359999999996,46
f0f10d00-33fe-3e9b-b00c-48574f6b874a,PCP43503,1 WALLIS COURT,LEXINGTON,MA,02421-5403,42.445221999999994,-71.23001500000001,781-862-4550,4391.439999999998,34
2269bc9e-cade-3aaa-a2e5-fbd322cd2ad0,PCP43736,983 BENNINGTON ST,EAST BOSTON,MA,02128-1134,42.375541,-70.970646,617-567-6666,4391.439999999998,34
db7c547c-eef2-3c72-a07c-56aaa1037beb,PCP43758,1371 BEACON ST,BROOKLINE,MA,02446-4905,42.323853,-71.142003,617-905-7103,4133.119999999998,32
37a78ec3-505f-361f-b6fa-aaafed77cd01,PCP43815,14 LOON HILL RD,DRACUT,MA,01826-4067,42.679722999999996,-71.30068,978-934-94442,129.16,1
945768aa-2200-3476-b042-993a9df74c65,BACK TO YOU PHYSICAL THERAPY AND SPORTS MEDICINE INC.,19 N MAIN ST,SHERBORN,MA,01770-1546,42.231947,-71.372963,617-571-7323,7491.279999999994,58
20763d7c-e939-3957-9426-5b8ef94fb409,PCP44491,1170 BEACON ST,BROOKLINE,MA,02446-3963,42.323853,-71.142003,617-731-0888,4133.119999999998,32
62b0b608-98d7-399c-bc4d-ff78143e82dc,PCP44540,15 PHEASANT RUN,WELLFLEET,MA,02667-7027,41.916805,-70.0271,617-538-3245,516.64,4
8817579d-1d32-3215-93e0-97b5ac0a5d34,ALEXEYENKO MEDICAL ASSOCIATES PC,24 STATE ST,LYNN,MA,01901-1505,42.474862,-70.96218499999999,781-581-6181,10203.639999999992,79
2b3fb8d9-bca7-3a0a-852c-93cdcb4a925a,PCP44913,1025 MASSACHUSETTS AVE,ARLINGTON,MA,02476-4503,42.418721999999995,-71.163912,508-983-9425,3874.7999999999984,30
437d6bdc-a404-373e-82bf-d96ada8685fa,PCP45420,61 MAIN ST,NORTH ADAMS,MA,01247-3421,42.675551,-73.11810899999999,413-652-1775,4003.959999999998,31
2d3edab2-3c67-3e4d-9f27-1806dde1de94,PCP45460,1180 BEACON ST,BROOKLINE,MA,02446-3806,42.323853,-71.142003,617-735-8868,7232.959999999995,56
2f55b7ee-3b90-3df1-8033-31c26bc58e98,PCP47292,9 DAMONMILL SQ,CONCORD,MA,01742-2858,42.462911,-71.364496,978-938-4488,10591.119999999992,82
9e8bb343-5589-3b67-a99a-abfb8f771cd0,PCP47668,68 BRADFORD ST,NORTHAMPTON,MA,01060-2369,42.327044,-72.67463000000001,413-530-0698,6974.639999999995,54
57af70ba-946b-3109-89a8-82481c300705,COMPREHENSIVE PHYSICAL THERAPY  PC,1037 MAIN ST,LEICESTER,MA,01524-1313,42.238427,-71.91234,508-892-1335,22344.67999999998,173
0bac2d2f-e91f-343e-89c6-c0456b974959,PCP47896,313 LUNENBURG ST,FITCHBURG,MA,01420-4503,42.601977000000005,-71.81586999999999,978-342-9900,14724.239999999987,114
4917759b-1f9e-3733-af09-132e8a56641a,PCP48383,33 E MAIN ST,WARE,MA,01082-1478,42.275462,-72.280158,413-949-2772,3745.6399999999985,29
8f3630c5-8c64-3f18-9518-e4dda457d2c4,PCP48513,873 TURNPIKE ST,NORTH ANDOVER,MA,01845-6152,42.673909,-71.091334,978-681-0406,8137.079999999994,63
a0e3f669-d53f-3554-a7d5-144f422a342b,PERFORMANCE PHYSICAL THERAPY INC,99 4TH ST,CHELSEA,MA,02150-2336,42.396824,-71.031348,617-889-2500,7620.439999999994,59
c78fd2bf-1131-389d-a75a-c5d3f7b1b8ef,JOHN F YEE  MD  PC,596 BROADWAY,EVERETT,MA,02149-3743,42.405938,-71.054649,617-387-3330,9557.839999999993,74
aae1fb04-c6b9-313a-8e21-3c22d44d76d9,PCP50827,238 VERMONT ST,WEST ROXBURY,MA,02132-2833,42.33196,-71.020173,617-510-2319,3487.319999999999,27
5a2303f3-c00e-3d72-9ea5-8b97ce2b332c,PCP50996,9 MERIAM ST,LEXINGTON,MA,02420-5312,42.445221999999994,-71.23001500000001,617-633-3740,5553.8799999999965,43
2d65194f-890e-358e-96bd-ae26070f196a,DEDHAM CONSULTATION CENTER LLC,339 WASHINGTON ST,DEDHAM,MA,02026-1870,42.246871999999996,-71.179462,781-407-7770,5037.239999999997,39
ca517cf5-bb77-3213-96be-e45060fc9989,PCP51368,3 ESSEX GREEN DR,PEABODY,MA,01960-2927,42.534279,-70.969782,978-317-0612,3745.6399999999985,29
729bd884-c56e-3413-8fbd-b8cc5a1c1651,MASSACHUSETTS SOCIETY FOR THE PREVENTION OF CRUELTY TO CHILDREN,9 SULLIVAN RD,HOLYOKE,MA,01040-2841,42.211656,-72.642448,413-532-9446,4778.919999999997,37
b8b67095-c4ea-3eee-9b55-27e3ae911b52,PCP51599,51 PERFORMANCE DR,WEYMOUTH,MA,02189-3141,42.206676,-70.94584499999998,617-726-8691,2841.5199999999995,22
35a49dfd-7ce3-3ef2-bbb3-eab67a5f26c3,NEW ENGLAND ORAL SURGERY ASSOCIATES LLC,2 ANDOVER RD,BILLERICA,MA,01821-1916,42.559673,-71.260947,978-667-8600,6974.639999999995,54
860f29f2-5cc3-302b-b387-a8a29f3f17de,BOSTON PHYSICAL THERAPY AND WELLNESS INC.,275 MYSTIC AVE C,MEDFORD,MA,02155-6301,42.423844,-71.10923100000001,781-572-2965,1808.2400000000005,14
d8cd2410-bbcb-3665-98f9-6ea59a8690f4,CENTRAL MASSACHUSETTS PHYSICAL THERAPY AND WELLNESS LLC,354 W BOYLSTON ST,WEST BOYLSTON,MA,01583-2373,42.369417,-71.785036,508-852-3700,2454.04,19
75392b84-5d3b-3410-9bb7-faeefba6d1ed,PCP52642,10 MUZZEY ST,LEXINGTON,MA,02421-5222,42.445221999999994,-71.23001500000001,781-862-8118,4908.079999999997,38
c080a658-eb34-370b-8c75-7f1f14776853,RETINA CONSULTANTS OF WORCESTER PC,63 LINCOLN ST,WORCESTER,MA,01605-2634,42.269478,-71.807783,508-791-1217,4908.079999999997,38
d32bd7bd-4211-34d8-a08b-b1b2b810d41b,PCP53096,275 VARNUM AVE,LOWELL,MA,01854-2109,42.63898,-71.321141,978-934-9220,9170.359999999993,71
84f858ae-39ce-3bd0-8685-9f7e98b8a03e,PCP55732,45 LYNMAN ST,WESTBORO,MA,01581,42.267441,-71.617492,617-501-5515,8137.079999999994,63
371e3122-1bc6-3d09-bfaa-c9b0ce99c60f,PCP56666,104 CHARLES ELDRIDGE DR,LAKEVILLE,MA,02347-1388,41.834412,-70.957166,508-923-8722,4133.119999999998,32
f93e59e2-c0e4-3118-a1c2-3234c6dde120,CHARIS CENTER SOUTH  INC.,604 FOUNDRY ST,EASTON,MA,02334,42.040515,-71.109329,508-947-1901,7749.599999999994,60
6d292afa-3f27-3fa6-945e-cdce925a8062,PCP57666,550 BELMONT ST,WATERTOWN,MA,02472-4951,42.369451,-71.177925,617-924-0268,5166.399999999997,40
eadeb4fd-c28c-3933-b6d1-fc0ae5d4af2e,PCP57734,166 COLLEGE HWY,SOUTHAMPTON,MA,01073-0431,42.226949,-72.74158800000001,413-527-9903,4003.959999999998,31
9ed84dec-369d-3dfd-89f7-3e6a4d6647e7,JOHN J WEITER MD PC,100 MILK ST,METHUEN,MA,01844-4662,42.742751,-71.178588,978-854-5090,6457.999999999995,50
1664cb7b-ed77-3557-8605-c09ae240b13f,PCP59250,7 LATHAM ST,WILLIAMSTOWN,MA,01267-2819,42.695743,-73.22211800000001,413-458-5636,4003.959999999998,31
b68e69a9-edc3-38c4-9fe1-f4c87fe882a3,PCP59336,6 HILLSIDE TER,LEXINGTON,MA,02420-3405,42.445221999999994,-71.23001500000001,781-861-9797,1808.2400000000005,14
38859640-bed1-3e30-9543-66f842c68dd6,PCP59394,450 N MAIN ST,SHARON,MA,02067-1172,42.108463,-71.185182,781-413-6373,11753.55999999999,92
b22a4ff0-f309-3693-ae82-7d69a551a85a,PAVILION HAND SURGEONS  INC.,DBA THE HAND CTR OF WESTERN MASSACHUSETTS,SPRINGFIELD,MA,01107-1078,42.115454,-72.539978,413-733-2204,1679.0800000000004,13
cd19146d-aed8-31e0-baa8-1dc7a6f07e05,JAMES LEVINE AND ASSOCIATES  P.C.,9 COLLEGE ST,SOUTH HADLEY,MA,01075-1421,42.256208,-72.58103,413-534-7400,4133.119999999998,32
57a4f22d-ee7b-30b0-9ac7-23ab9e72cab9,PCP59814,1 SPRINGFIELD ST,CHICOPEE,MA,01013-2672,42.175668,-72.572257,,4391.439999999998,34
94d03dd2-29ee-347c-99e2-9a62181d5b10,PCP59870,955 MAIN ST,WINCHESTER,MA,01890-4300,42.452752000000004,-71.144319,508-358-7241,6716.319999999995,52
41201aa8-36b4-36c6-94fa-808078c2d84c,PCP60238,1776 MASS AVE,CAMBRIDGE,MA,02140-2852,42.376043,-71.11868,617-417-6427,6199.679999999996,48
c187d348-3778-3298-9965-cd81fb8100a7,PCP61304,59 MOSMAN ST,NEWTON,MA,02465-1303,42.331876,-71.208402,617-332-3054,1033.28,8
5808257d-cb50-3621-8b17-b85c3456d34b,PCP61318,270 BENTON DR,EAST LONGMEADOW,MA,01028-3119,42.062378,-72.498111,413-575-6801,7362.119999999994,57
4e712157-4784-3bc4-9d9e-d7ddde72acaf,PCP61412,25 COLLEGE ST,SOUTH HADLEY,MA,01075-1154,42.256208,-72.58103,413-539-9731,8137.079999999994,63
a7303a5f-f77a-3042-96a4-741338a89e3c,DOMENIC M STRAZZULLA MD PC,500 CONGRESS ST,QUINCY,MA,02169-0917,42.261006,-71.008988,617-770-1505,7878.759999999994,61
f390073f-8d65-3e72-8ebd-fb8b465d324b,CROWN OBSTETRICS AND GYNECOLOGY PC,300 CONGRESS ST,QUINCY,MA,02169-0907,42.261006,-71.008988,617-479-6636,1808.2400000000005,14
00ef6715-a4ef-35f2-af79-2194fb6e2b69,PCP62844,45 LYMAN ST,WESTBOROUGH,MA,01581-2658,42.268426,-71.613309,617-600-3588,6328.839999999996,49
e13b3283-5e8a-3431-960f-b4e78e6ec8b4,ANDOVER OBSTETRICS AND GYNECOLOGICAL ASSOCIATES PC,323 LOWELL ST,ANDOVER,MA,01810-4501,42.648044,-71.161751,978-475-2731,4778.919999999997,37
b81f7f7b-46fa-3596-bf0f-2db5613cf671,PCP63171,15 SHIRLEY AVE,DENNIS PORT,MA,02639-2443,41.666903999999995,-70.135645,508-394-8677,2324.88,18
c6afc967-7e17-3838-aae5-8174cd80f63b,BROOKLINE VILLAGE OBGYN LLC,1 BROOKLINE PL,BROOKLINE,MA,02445-7296,42.323853,-71.142003,617-735-8800,3874.7999999999984,30
43ee324a-90df-3edf-a08c-e4749a110ba1,PCP63868,5 WATSON RD,BELMONT,MA,02478-3900,42.395317,-71.180284,617-489-2573,4778.919999999997,37
fdc50404-f4c8-3e14-848f-e111593be656,PCP64595,611 MAIN ST,WINCHESTER,MA,01890-1900,42.452752000000004,-71.144319,781-721-7311,2454.04,19
88ce3362-6546-325f-a540-1b7c93040d54,PCP64772,563 MAIN ST,BOLTON,MA,01740-1300,42.439941,-71.601879,781-843-4499,1033.28,8
f5c2ed46-d994-33c7-bc9e-c723b8ad24a0,PCP65005,1 ORR SQUARE C,REVERE,MA,02151-3200,42.421005,-70.99036,781-289-2144,7362.119999999994,57
48cc6105-501d-3dfc-bd75-05697a1d40ec,PCP66098,59 OLD RD TO 9 ACRE COR,CONCORD,MA,01742-3317,42.462911,-71.364496,978-287-0700,3228.999999999999,25
ba1ba4e5-cedf-3b83-8501-3e32b4581945,PCP66345,1214 BENNINGTON ST,EAST BOSTON,MA,02128-1203,42.375541,-70.970646,617-569-6607,4391.439999999998,34
5db9c918-9e4d-38bb-a94c-2c031fcb6fb0,CRABBE CHIROPRACTIC  INC,132 S MAIN ST,ACUSHNET,MA,02743-2772,41.718216999999996,-70.901151,508-998-2800,20923.91999999998,162
956d10b5-1640-343e-8d5e-c04408214b2d,PCP67081,413 HIGH ST,FALL RIVER,MA,02720-3306,41.725351,-71.094162,774-322-1712,5166.399999999997,40
e779412c-08c2-3316-a0ce-2d31148b1b31,RHEUMATOLOGY AND INTERNAL MEDICINE ASSOCIATES  PC,64 C CONCORD ST,WILMINGTON,MA,01887-2179,42.564646999999994,-71.164516,978-988-9700,6457.999999999995,50
0ace4c03-6649-39df-859c-d8598c2b213f,PCP68425,919 MAIN ST,CLINTON,MA,01510-1613,42.411887,-71.690005,978-365-6044,3874.7999999999984,30
ff3a40a6-6fde-3c12-9eb1-3ebd11709ae3,PCP68637,1093 BEACON ST,BROOKLINE,MA,02446-5623,42.323853,-71.142003,617-232-3503,12270.19999999999,95
63078321-b0d6-3081-ac76-f38f594256ef,EYES ON RANDOLPH  LLC,1157 N MAIN ST,RANDOLPH,MA,02368-2135,42.178993,-71.052654,781-963-2333,3616.4799999999987,28
58fe1815-1e8a-38ed-a91a-17d4ef18c8d8,PCP68975,259 MAIN ST,ASHLAND,MA,01721-2115,42.257754999999996,-71.473526,508-881-4368,7878.759999999994,61
935fc47d-45de-380c-a42c-3f3cac84744f,PCP69056,947 ROUTE 6A,YARMOUTH PORT,MA,02675-2171,41.706920000000004,-70.221117,508-326-3668,10849.439999999991,84
4a003d1d-d190-372a-a5e3-8828d4f3eca7,PCP69145,1 OLDE N RD,CHELMSFORD,MA,01824-1453,42.597055,-71.3697,978-710-6574,4391.439999999998,34
28add592-cd34-32b0-aa80-b4a531b61f1a,PCP69518,18 MILLISTON RD,MILLIS,MA,02054-1600,42.173103000000005,-71.36375600000001,508-376-2539,6974.639999999995,54
55f15a5c-f9c2-31f4-9a7f-1c5f832db6b6,PCP69662,101 MAIN ST,MEDFORD,MA,02155-4530,42.423844,-71.10923100000001,781-396-8100,10461.959999999992,81
9e0ab3c4-6a7a-36bc-b190-7ab958f01774,PCP70214,101 CAMBRIDGE ST,BURLINGTON,MA,01803-3741,42.503227,-71.201713,781-272-0379,4133.119999999998,32
8e9209b3-bf8b-3953-81d8-d51004897c4c,PCP70511,234 RUSSELL ST,HADLEY,MA,01035-3534,42.356491,-72.568632,413-374-1090,4908.079999999997,38
8b607111-30ff-3014-bf43-3a9d61993538,CHAMPIONSHIP PHYSICAL THERAPY LLC,57 PUTNAM ST,WINTHROP,MA,02152-2902,42.375541,-70.970646,617-846-5609,4520.599999999998,35
ff4d1de1-92fb-3c3c-a0a5-23504c39836a,PCP70992,150 FLANDERS RD WHITTIER REHAB HOSP,WESTBOROUGH,MA,01581-1017,42.268426,-71.613309,508-762-8050,8266.239999999994,64
afc77794-655b-3e0b-86c3-e2c88f01f943,PCP71419,130 COUNTY RD,IPSWICH,MA,01938-2550,42.695981,-70.83564799999999,978-356-2890,3616.4799999999987,28
6b854c9c-57a1-36da-a82a-7d21680f5abf,PCP71714,71 WASHINGTON ST,WEYMOUTH,MA,02188-1702,42.206676,-70.94584499999998,781-335-4300,6587.159999999995,51
f7d3a509-bca2-3b93-80b7-97ca6778a089,WEST BROOKFIELD FAMILY PRACTICE,46 N MAIN ST,W BROOKFIELD,MA,01585-1044,42.24188,-72.146863,508-867-8977,8524.559999999994,66
2628a43e-1c53-322f-8042-143806926c86,PCP72065,20 THOREAU RD,PLYMOUTH,MA,02360-3539,41.897892,-70.62403,508-944-8812,5166.399999999997,40
e17051ee-b1fb-33b5-92b8-ee64c4230ec6,PCP72189,167 BROADWAY,TAUNTON,MA,02780-2547,41.903324,-71.094987,508-824-9571,4003.959999999998,31
9e28776c-2cd0-3f91-a942-e0a6974c9f0e,PCP72332,166 VILLAGE ST,MILLIS,MA,02054-1730,42.173103000000005,-71.36375600000001,508-376-8104,5295.559999999997,41
c795bf75-0bfa-3273-9222-6aa97290359a,PCP72347,736 CAMBRIDGE ST,BRIGHTON,MA,02135-2997,42.33196,-71.020173,617-783-3995,9428.679999999993,73
c03afdc3-c4da-3d00-8916-e4fde08e187c,PCP72513,817 MERRIMACK ST,LOWELL,MA,01854-3548,42.63898,-71.321141,978-458-7510,8266.239999999994,64
df5a72fa-fb57-3a95-b115-665b3e2f0aa3,PCP72587,80 BOSTON TPKE,SHREWSBURY,MA,01545-3601,42.284766999999995,-71.714228,508-217-7200,4133.119999999998,32
c3824d8c-8e94-3f97-8fc8-31337215f727,PCP72648,1269 BEACON ST,BROOKLINE,MA,02446-5248,42.323853,-71.142003,617-739-2518,9816.159999999993,76
a8528b4e-d267-3dd5-9e49-1cc72db3a060,PCP72713,838 WASHINGTON ST,HOLLISTON,MA,01746-3600,42.195951,-71.45343000000001,508-429-5558,6328.839999999996,49
221170d0-1e4a-3843-8851-9e22fa209be2,PCP73076,425 ROUTE 6A,E SANDWICH,MA,02537-1470,41.734214,-70.430683,508-888-1130,11624.39999999999,90
47d8c4f0-874d-3180-b9ef-037a41f22a11,PCP73239,54 CLARK RD,BROOKLINE,MA,02445-6030,42.323853,-71.142003,617-731-3978,4520.599999999998,35
3d366b14-5c96-3452-a5cf-cddc5bbe731f,PCP73331,611 MAIN ST,WINCHESTER,MA,01890-1900,42.452752000000004,-71.144319,781-729-2781,5295.559999999997,41
9b3c647e-19a8-3017-9980-cb3c0160f3d9,CHARLTON FAMILY PRACTICE,246 SOUTHBRIDGE RD,CHARLTEN,MA,01507-7251,42.097282,-72.05503399999998,508-248-4801,16144.999999999985,125
465e5df3-036d-3efd-ba82-e6ddf5e91949,PCP75721,178 SAVIN ST,MALDEN,MA,02148-2329,42.42938,-71.058706,781-338-7750,516.64,4
b5a281d3-d83c-3131-b4e3-206e6e2d9bbc,ALLERGY AND ASTHMA SPECIALISTS  PC,9 VILLAGE SQ,CHELMSFORD,MA,01824-2712,42.597055,-71.3697,978-256-4531,4262.279999999998,33
bf157fb8-f696-3d13-93e2-ab124fa965d1,RADIATION ONCOLOGY ASSOCIATES  PA,41 MALL RD,BURLINGTON,MA,01805-0001,42.503227,-71.201713,781-744-8780,4649.7599999999975,36
829ac47a-9b25-3643-9df8-6db22cb0d682,PCP77122,23 WARREN AVE,WOBURN,MA,01801-4979,42.488769,-71.154438,987-932-0649,1291.6000000000001,10
bd51dda6-36ae-3894-b334-aa5ce9b057c8,WOMEN'S HEALTH OF CENTRAL MA. PC,325 THOMPSON RD,WEBSTER,MA,01570-1504,42.047075,-71.845805,508-755-4851,4649.7599999999975,36
7848e4ec-44a0-3d29-bb76-c0e10579a762,ALAN ROCKOFF  M.D  LLC,28 ANDOVER ST,ANDOVER,MA,01810-4888,42.648044,-71.161751,978-475-9230,4520.599999999998,35
20b096dd-6658-378c-9355-c230621ddcc0,QUINCY SURGICAL ASSOCIATES  INC,700 CONGRESS ST,QUINCY,MA,02169-0909,42.261006,-71.008988,617-479-7333,4520.599999999998,35
96a4bbba-d12a-367e-b635-a7df9440999b,PCP80251,33 STATE RD,DARTMOUTH,MA,02747-3319,41.56651,-70.958229,508-996-4138,8653.719999999994,67
5e990674-4032-37a7-baa7-15d90b749278,PCP81036,ONE ROUNDHOUSE PLAZA,NORTHAMPTON,MA,01060-4430,42.327044,-72.67463000000001,413-586-5499,5424.719999999997,42
75bce424-82dd-3c8e-9a24-8bb2b2939174,PCP81055,180 SHIRLEY AVE,REVERE,MA,02151-3257,42.421005,-70.99036,781-284-5954,4262.279999999998,34
3b95e41b-3ab4-36a3-9da2-2e07bf09ff42,ANDOVER OBSTETRICS AND GYNECOLOGICAL ASSOCIATES PC,1 GENERAL ST,LAWRENCE,MA,01841-2961,42.700272999999996,-71.161357,978-685-1594,3874.7999999999984,30
37e31981-39c0-3b07-aa39-f5c68f248d6b,PCP82025,165 CHESTNUT ST,BROOKLINE,MA,02445-7573,42.323853,-71.142003,617-731-5188,4391.439999999998,34
29437dd4-1165-3098-a113-d55d1150ecea,PCP82077,287 WASHINGTON ST,S ATTLEBORO,MA,02703-5524,41.931653,-71.294503,508-399-6036,4003.959999999998,31
8d863a26-7d73-3511-846f-487c9ecf6838,PCP82228,28 HIGH ST,GREENFIELD,MA,01301-2973,42.614671,-72.597063,413-774-3591,4262.279999999998,33
9947a8a4-1b3e-3f26-b2d0-41755a71195f,DENTAL SURGEONS OF FALL RIVER PC,516 HAWTHORN ST,NORTH DARTMOUTH,MA,02747-3733,41.646686,-70.999158,508-992-0339,15628.359999999986,121
1ce997c8-790f-325c-b79b-ce99e8d3c386,HEART CENTER PC,52 PARK ST,HYANNIS,MA,02601-5206,41.647227,-70.249978,508-771-8804,3745.6399999999985,29
0507f525-c041-34d0-b731-f39f2b7239c0,PCP83022,32 E NORTHFIELD RD,NORTHFIELD,MA,01360-9668,42.677091,-72.453876,413-773-0009,8524.559999999994,66
3b5067a8-36ad-367c-b73e-2b6220a5f290,PCP83090,4 TANNERY BROOK ROW,SOMERVILLE,MA,02144-2758,42.390445,-71.101033,617-726-1736,2454.04,19
ee63d0cc-dd41-3467-bdff-320b17feb771,ERIC J WOODARD MD PC,125 PAKER HILL AVE,BOSTON,MA,02120-2847,42.338551,-71.018253,781-749-9071,3616.4799999999987,28
ce75d1c5-c22a-396f-8e88-e51ffce315ac,GANDARA MENTAL HEALTH CENTER INC,85 SAINT GEORGE RD,SPRINGFIELD,MA,01104-3333,42.115454,-72.539978,413-732-2120,1679.0800000000004,13
169d10aa-a347-3930-9f6a-499b98965fca,PCP85071,1 MIFFLIN PL,CAMBRIDGE,MA,02138-4907,42.376043,-71.11868,617-492-9362,6974.639999999995,54
e094df5b-5f8a-3e53-a0fa-bc6e846500a4,PCP85355,395 STATE RD,VINEYARD HAVEN,MA,02568-5693,41.457484,-70.605097,508-696-8877,12528.51999999999,97
2b7d7296-e678-3d7e-a2f1-ffd7bfcfd509,PCP85885,244 NEEDHAM ST,NEWTON,MA,02464-1595,42.331876,-71.208402,,3228.999999999999,25
9aab4d91-54fb-3743-915a-de41ad413ed8,PHYSICAL THERAPY AND FITNESS CENTER OF RAYNHAM  INC.,675 PARAMOUNT DR,RAYNHAM,MA,02767-5416,41.930477,-71.046214,508-828-1011,1808.2400000000005,14
2ef6339e-7a73-3bde-8742-8142ae6f64f1,SOUTH SHORE UROLOGY  INC.,780 MAIN ST,SOUTH WEYMOUTH,MA,02190-1618,42.206676,-70.94584499999998,781-331-4600,14853.399999999987,115
e466586f-6b1f-33f9-9fc3-f73423cc407e,BOSTON MATERNAL FETAL MEDICINE LLC,1 BROOKLINE PL,BROOKLINE,MA,02445-7294,42.323853,-71.142003,617-264-0364,5037.239999999997,39
909a0f76-d1bc-3354-a883-82d002a29123,LYNNFIELD PSYCHOLOGICAL ASSOCIATES  PC,180 MAIN ST,LYNNFIELD,MA,01940-2514,42.534146,-71.038333,781-334-2644,7103.799999999995,55
73087250-f785-399c-916a-4815188f9753,PCP89048,173 ESSEX ST,SWAMPSCOTT,MA,01907-1150,42.468059000000004,-70.89126,,5424.719999999997,42
a5de09bb-ad8d-3a5f-a80f-434fb061935e,MARTHA'S VINEYARD COMMUNITY SERVICES  INC.,111 EDGARTOWN RD,OAK BLUFFS,MA,02557,41.457159999999995,-70.556101,508-693-7900,7620.439999999994,59
51fe5cd0-ac71-32ee-99b9-f5a37ce37467,PRO SPORTS ORTHOPEDICS INC,20 GUEST ST,BRIGHTON,MA,02135-2065,42.33196,-71.020173,617-586-1900,6974.639999999995,54
e0ba4ea4-4658-3465-8ed1-171d87ebf9d2,PCP92222,80 MECHANIC ST,ATHOL,MA,01331-2053,42.575924,-72.229618,978-249-7818,7232.959999999995,56
187674f4-8252-314f-a97c-d80acf51d977,PCP92449,2 ALLEN ST,HAMPDEN,MA,01036-9552,42.071188,-72.41771800000001,,7491.279999999994,58
0b59187e-7835-3ccf-ba76-f3ced345408b,PCP93417,315 MAIN ST,NORTH READING,MA,01864-1326,42.578222,-71.084398,,4003.959999999998,31
af69bab8-9c23-3fdb-871e-80206637a99d,PCP93684,5 WALLACE ST,METHUEN,MA,01844-6425,42.742751,-71.178588,978-221-7598,6845.479999999995,53
983c2ce9-d7d2-39ca-9888-5b9badcd41fb,PCP93809,131 ORNAC,CONCORD,MA,01742,42.462911,-71.364496,,4133.119999999998,32
06554ce1-b5ed-37f3-b3da-8493fc33b115,PCP94138,955 MAIN ST,WINCHESTER,MA,01890-1992,42.452752000000004,-71.144319,,6974.639999999995,54
f9d686d4-0133-30a3-ab72-80c9e93921f4,PCP95496,169 N FRANKLIN ST,HOLBROOK,MA,02343-1111,42.140346,-70.997861,,9170.359999999993,71
c0dab828-5db5-3e9f-8529-cf7dd1d1ed33,PCP95658,99 4TH ST,CHELSEA,MA,02150-2326,42.396824,-71.031348,,14207.599999999988,110
05af0729-4813-362d-b0b7-c99d69ccae71,NEWBURYPORT MA RADIATION CENTER LLC,1 WALLACE BASHAW WAY,NEWBURYPORT,MA,01950-3876,42.812141,-70.886646,978-997-1351,6328.839999999996,49
59369be8-8edb-3df6-9036-44bed2163ec0,PCP97540,511 W GROVE ST,MIDDLEBORO,MA,02346-1458,41.894223,-70.925689,,6974.639999999995,54
6f88128c-99e4-31fe-a701-f39662dfe49a,LEXINGTON EYE ASSOCIATES - BID,21 WORTHEN RD,LEXINGTON,MA,02421-4835,42.445221999999994,-71.23001500000001,,3358.159999999999,26
cc863f58-7648-318b-850e-e33deb004bff,BOSTON MFM LLC,1 BROOKLINE PL,BROOKLINE,MA,02445-7224,42.323853,-71.142003,617-264-0364,5295.559999999997,41
0401b17a-7c0d-3c0a-8b3f-65cfe61043dd,PCP98579,388 COUNTY ST,NEW BEDFORD,MA,02740-4992,41.661303000000004,-70.937913,,4262.279999999998,33
33a2154e-15b5-35b8-b571-83a1a46e9dce,PCP98782,575 S ST W,RAYNHAM,MA,02767-5305,41.930477,-71.046214,,8912.039999999994,69
06cd49bd-8db3-3e14-b628-d3045e2509f7,PCP99786,51 UNION ST,EASTHAMPTON,MA,01027-1446,42.265435,-72.670813,,5553.8799999999965,43
aad90de1-23de-3239-bbf3-a22a9842cc31,FAMILY AND COMMUNITY RESOURCES INC,18 NEWTON ST,BROCKTON,MA,02301-5115,42.082543,-71.024638,508-583-6498,1420.7600000000002,11
32d25335-b5e3-3e02-8d9f-58f46e151cf4,PCP102280,17 MAIN ST,HUDSON,MA,01749-2108,42.389071,-71.545864,,3745.6399999999985,29
b32a5028-60ae-3f1e-bc20-e1cdb06d5a18,PCP102523,1 WALPOLE ST,NORWOOD,MA,02062-3315,42.187364,-71.195971,,2195.7200000000003,17
5181acd0-4c26-3172-9068-138966873eb6,PCP102671,22 W ST,MILLBURY,MA,01527-2622,42.192246000000004,-71.777649,,4391.439999999998,34
8233620f-a2f9-33b1-bbef-4d008ca8470a,PCP103195,175 DERBY ST,HINGHAM,MA,02043-4047,42.224319,-70.880673,,8782.879999999994,68
f6c2e178-9469-3297-aa75-a4a5ff3d91c7,PCP103886,1501 MAIN ST,TEWKSBURY,MA,01876-2084,42.612088,-71.227845,,3358.159999999999,26
753f3c32-49b3-34ed-a40d-420ac433ec96,PCP103937,7 ALFRED ST,WOBURN,MA,01801-1900,42.488769,-71.154438,,6845.479999999995,53
49576e6f-f875-3d69-89a7-1bd016f0b33a,PCP104516,171 MAIN ST,ASHLAND,MA,01721-1185,42.257754999999996,-71.473526,508-881-7766,6587.159999999995,51
263c7652-4bd7-3ffb-a63d-3c2e2cae36a1,PCP105604,835 W CENTRAL ST,FRANKLIN,MA,02038-3189,42.084858,-71.41057099999998,,4003.959999999998,31
2a13b9b4-e4fd-318b-a01d-cc96ca048cd7,PCP105874,104 QUARRY ST,QUINCY,MA,02169-4175,42.261006,-71.008988,,2066.5600000000004,16
7048f223-5fe7-3864-a96e-b9acc08cc8c7,PCP106281,141 BRIDGE RD,SALISBURY,MA,01952-2400,42.844794,-70.841499,,9299.519999999993,72
f4b46389-b2b4-3bf2-acbd-1ec20401ef4d,PCP106933,28 ESSEX ST,LYNN,MA,01902-1799,42.474862,-70.96218499999999,781-595-5500,6199.679999999996,48
3344450e-b132-3c90-894f-2b9028411ad8,PCP106991,11 UNION ST,LAWRENCE,MA,01840-1815,42.700272999999996,-71.161357,,1937.4000000000005,15
6a1f2b62-18a3-3a7c-a673-0004e2d0b33a,PCP107572,11 CHESTNUT ST,ANDOVER,MA,01810-3724,42.648044,-71.161751,,5037.239999999997,39
7781e606-766a-38d9-ab6d-8e20da4ac431,PCP107681,1890 BEACON ST,BROOKLINE,MA,02445-1960,42.323853,-71.142003,617-566-0030,4649.7599999999975,36
8cc4fd57-5a41-384c-8a70-853446d691b9,PLYMOUTH DERMATOLOGY ASSOCIATES  PC,345 COURT ST,PLYMOUTH,MA,02360-4329,41.897892,-70.62403,508-746-5300,4520.599999999998,35
68cee1fa-8311-3f11-b2b5-07aae9231c35,GREENDALE PHYSICAL THERAPY LLC,145 CHURCH ST,CLINTON,MA,01510-2560,42.411887,-71.690005,978-598-3155,5166.399999999997,40
36df9172-8c2f-325d-9bf3-b7f7338e474c,PCP109906,7 HADLEY ST,SOUTH HADLEY,MA,01075-1058,42.256208,-72.58103,,4262.279999999998,33
80075dfe-2b6e-3cc8-b85e-437526caa6f7,PCP110229,1690 MAIN ST,SOUTH WEYMOUTH,MA,02190-1279,42.206676,-70.94584499999998,,6328.839999999996,49
1d9793e4-b135-33d8-b90e-521cedb608cc,PCP110579,611 LEOMINSTER RD,LUNENBURG,MA,01462-2013,42.582607,-71.720464,,4908.079999999997,38
b64e856f-b90d-300f-a8cb-4f458389f80e,PCP110663,265 MEDFORD ST,SOMERVILLE,MA,02143-1963,42.390445,-71.101033,,6716.319999999995,52
b5d63890-b84e-3528-bd30-d7b4913589a1,SALEM PEABODY ORAL SURGERY,6 ESSEX CTR DR,PEABODY,MA,01960-2905,42.534279,-70.969782,978-531-1450,4391.439999999998,34
5465c0e6-2534-361a-9e74-5dcbdeca2d2a,PCP111090,1 WIDGER RD,MARBLEHEAD,MA,01945-2100,42.495629,-70.83582,,4133.119999999998,32
bcb26f1b-a37d-37dd-8819-c5dd6b6d9f74,PCP111254,22 PLEASANT ST,WEST BRIDGEWATER,MA,02379-1506,42.021617,-71.026717,,3874.7999999999984,30
3bd17675-986e-382c-a582-8fbd32de1064,PCP111516,249 CENTRAL ST,LOWELL,MA,01852-1929,42.63898,-71.321141,,774.9599999999999,6
1c9f06a8-38bb-3d07-99b2-176d626bc4c2,PCP113281,111 WASHINGTON ST,PLAINVILLE,MA,02762-2155,42.012797,-71.336578,,5941.359999999996,46
f27325c3-584b-30c3-860e-c8965912aeee,PCP113494,299 CAREW ST,SPRINGFIELD,MA,01104-2361,42.115454,-72.539978,,4520.599999999998,35
5445cc47-4b0f-37a6-9223-418b20a0693f,PCP115864,16 WINTER ST,SOUTHBOROUGH,MA,01745-1029,42.299625,-71.52842700000001,,6587.159999999995,51
1cf882a1-68f0-3dc7-9b3a-d2b8e0c265ac,HAND SURGICAL ASSOCIATES  INC.,123 WATERHOUSE RD,BOURNE,MA,02532-3890,41.717459999999996,-70.591824,617-738-0857,6328.839999999996,49
c9216d86-bc94-32af-98e6-3efe8e0bb31b,PCP116564,143 W MAIN ST,WEST BROOKFIELD,MA,01585-2812,42.256691,-72.158169,508-867-6161,774.9599999999999,6
5fc5349f-9ce7-364c-96ce-9a27873204e3,PCP116640,35 MAIN ST,SAUGUS,MA,01906-2305,42.468432,-71.01394599999999,781-233-1946,9299.519999999993,72
c2c9a655-efd6-36f5-af9c-3dd46c1f7a03,PCP116731,679 PLEASANT ST,PAXTON,MA,01612-1380,42.311693,-71.940282,,4778.919999999997,37
20035438-faf9-3434-b171-8bf6dd712735,PCP117478,1234 BROADWAY,SOMERVILLE,MA,02144-1703,42.390445,-71.101033,617-666-4321,4391.439999999998,34
df307868-cb89-31d5-8894-1ddbc7f7fbda,PCP118039,118 GREAT RD,STOW,MA,01775-1190,42.429688,-71.512514,,4133.119999999998,32
f33124ba-95bf-378a-858b-ecbf737c1334,PCP118611,126 PRESIDENT AVE,FALL RIVER,MA,02720-2649,41.725351,-71.094162,,2066.5600000000004,16
49bf5812-29f3-32c7-88de-329eb3864885,PCP118875,627 COLLEGE HWY 2,SOUTHWICK,MA,01077-9829,42.05257,-72.777353,,6199.679999999996,48
2db889da-7f59-3bdb-9f98-4d40f24a2540,PCP121054,31 PINE ST,NORFOLK,MA,02056-1642,42.116244,-71.329274,,7362.119999999994,57
a1331f5d-b18b-318a-b376-81d14db5983f,PCP122892,76 MAIN ST,PEPPERELL,MA,01463-1561,42.670643,-71.602858,978-433-0517,6845.479999999995,53
476a6290-43dd-32db-872f-9c7ad4f04d56,EXETER EYE ASSOCIATES LLC,159 SQUARE ONE MALL,SAUGUS,MA,01906-4181,42.468432,-71.01394599999999,781-231-1535,6457.999999999995,50
ba5bd9fc-2f16-35db-83a1-5d6b4f585f99,PCP122999,7 SAINT ANTHONYS LN,GLOUCESTER,MA,01930-4262,42.62885,-70.685875,,5295.559999999997,41
cbb2ae67-9e17-3283-9cd1-e7ae70ded50d,PCP123075,300 NEEDHAM ST,NEWTON,MA,02464-1532,42.331876,-71.208402,,6328.839999999996,49
c4aa0990-a6d8-3d5f-a6d9-f640761ec82d,PCP123085,200 WALNUT ST,SAUGUS,MA,01906-1175,42.468432,-71.01394599999999,,5037.239999999997,39
12f5595c-78d8-314b-8b02-7bef6558e8ee,PCP123143,288 LITTLETON RD,WESTFORD,MA,01886-3527,42.585541,-71.44025,,5812.199999999996,46
42155e5d-1678-389e-bf85-3af30a5700fa,PCP123154,512 MAIN ST,SHREWSBURY,MA,01545-6405,42.284766999999995,-71.714228,,5941.359999999996,46
ec2528f8-b313-31e3-81e9-a3a4141ab99f,PCP123325,239 BOSTON,TOPSFIELD,MA,01983-2215,42.641379,-70.94344,,5295.559999999997,41
fabd762f-fd01-34fe-8231-180e3181b3b5,PCP123458,175 CAMBRIDGE ST,BURLINGTON,MA,01803-2923,42.503227,-71.201713,,5166.399999999997,40
2410394a-8fa8-3c57-8c24-3d749627c119,ALLERGY AND IMMUNOLOGY ASSOCIATES OF NEW ENGLAND LLC,53 SOUTHAMPTON RD,WESTFIELD,MA,01085-1375,42.138838,-72.755911,413-563-3364,6587.159999999995,51
16014101-0356-3e8c-9508-eb3114d3afcb,ATLANTIS PHYSICAL THERAPY GROUP INC,62 WARREN ST,ROXBURY,MA,02119-3253,42.33196,-71.020173,617-442-0111,4262.279999999998,33
1be0f903-835f-3472-8ddb-ec66b56cd4aa,PCP126177,25 CHARLES ST,HOLLISTON,MA,01746-2105,42.195951,-71.45343000000001,,1937.4000000000005,15
ed03dc2d-0567-3395-92df-4c18d4993565,PCP127028,391 BROADWAY,EVERETT,MA,02149-0009,42.405938,-71.054649,,8137.079999999994,63
dc4038ce-46ce-3540-8beb-506b56b14aa5,PCP127217,29 HUBBARDSTON RD,PRINCETON,MA,01541-1808,42.454125,-71.87754,,5037.239999999997,39
7828e5ea-1d0c-3cb2-a168-cbca730c12ee,A PLUS CHIROPRACTIC MANAGEMENT INC,2360 CRANBERRY HWY,WEST WAREHAM,MA,02576-1208,41.791736,-70.75787199999999,508-273-0190,8007.919999999994,62
c17db94f-4d24-3c3a-bc46-ffc9fa86e212,PCP128389,592 PROVIDENCE HWY,DEDHAM,MA,02026-6804,42.246871999999996,-71.179462,,3616.4799999999987,28
5fa45852-0951-3485-89a2-f02eb34e37b8,PCP128639,188 CONCORD ST,FRAMINGHAM,MA,01702-8315,42.307905,-71.436196,,129.16,1
3f184cf6-7894-3394-9d90-cf8ff5c7e6cd,PCP129059,450 N MAIN ST,SHARON,MA,02067-1172,42.108463,-71.185182,,4003.959999999998,32
ef3ba8f6-dfc8-3bc3-b630-dfceb54940e1,PCP129239,100 HIGHLAND ST,MILTON,MA,02186-3874,42.241557,-71.082432,,4649.7599999999975,36
85c355c5-250e-3f23-960c-a8915a0cad4c,BAY RADIOLOGY ASSOCIATES  INC.,2527 CRANBERRY HWY,WAREHAM,MA,02571-1046,41.76104,-70.701779,508-548-8100,3874.7999999999984,30
3940484e-b7da-3e7f-bdb9-a271c0451053,PCP130116,116 MAIN ST,MEDWAY,MA,02053-1800,42.156203000000005,-71.43034499999999,508-533-2252,2324.88,18
a73cfcec-4977-3efa-8352-8f37a9e5bdba,PCP130321,33 BOW ST UNION SQUARE,SOMERVILLE,MA,02143-2937,42.390445,-71.101033,,4391.439999999998,34
5d5c77b2-f5ef-3180-8966-7475a3f4642a,PCP130504,681 FALMOUTH RD,MASHPEE,MA,02649-6312,41.617622999999995,-70.492713,,3616.4799999999987,28
a4adea55-faf8-3247-81a2-6d9f64334b82,PCP130534,150 FLANDERS RD,WESTBOROUGH,MA,01581-1017,42.268426,-71.613309,508-898-8650,2195.7200000000003,17
0adbfc92-86b4-351b-9c0b-de45963055de,PCP130586,360 BROCKTON AVE,ABINGTON,MA,02351-2186,42.119966999999995,-70.957211,,2583.2,20
4b63b3bb-1dcf-3e98-a9eb-83a88bf7fd75,PCP131683,150 FLANDERS RD,WESTBOROUGH,MA,01581-1017,42.268426,-71.613309,,6587.159999999995,52
4afe828b-d23e-3b89-afa4-f2fa00720415,PCP131717,31 WILLIAMSTOWN RD,LANESBOROUGH,MA,01237-9524,42.535857,-73.24113299999999,,4778.919999999997,37
81d97677-f9f6-30ec-b5e9-efba1615787b,PCP133179,180 STATE RD,SAGAMORE BEACH,MA,02562-2362,41.782888,-70.5321,,6328.839999999996,49
04c749da-634e-3e9e-9806-a5052635370e,PCP133287,1592 GAR HWY,SOMERSET,MA,02726-1210,41.738479,-71.165065,,9041.199999999993,70
436239dc-a195-38e9-bbb9-663fe338c0c3,PCP133927,142 N MAIN ST,BELCHERTOWN,MA,01007-9433,42.27901,-72.400468,,6587.159999999995,52
2a994f69-042f-3e02-a223-acabc117d94a,PCP134708,284 MONPONSETT ST,HALIFAX,MA,02338-1431,42.002634,-70.86370600000001,,6199.679999999996,48
a7d76183-97c6-3804-93aa-7919103d1c6c,BOSTON VISION WORKS INC,335 MAIN ST,SAUGUS,MA,01906-3143,42.468432,-71.01394599999999,,3874.7999999999984,30
8b372f3b-8269-325b-99c1-b7e8b581ae34,PCP135256,61 LINCOLN ST,FRAMINGHAM,MA,01702-8264,42.307905,-71.436196,508-879-5040,3874.7999999999984,30
0ed718c4-40b8-3766-93b7-26340d316499,PHYSICAL THERAPY ASSOCIATES OF SCHENECTADY  P.C,480 PLEASANT ST,LEE,MA,01238-9265,42.303174,-73.233924,413-243-3477,4262.279999999998,33
9f58c0bd-ab63-3fff-95d4-6dca37991d12,PCP135711,600 CANTON AVE,MILTON,MA,02186-3139,42.241557,-71.082432,,4649.7599999999975,36
2fae7095-f7b6-3502-8163-90fa64f6b57b,PCP135905,5 PRECINCT ST,LAKEVILLE,MA,02347-1468,41.834412,-70.957166,,11366.07999999999,88
586d90ae-7754-30c2-996b-9e62e75227d3,PCP136067,163 N MAIN ST,NORTH BROOKFIELD,MA,01535-1400,42.267564,-72.06687600000001,,8524.559999999994,66
75005bf0-4df2-3914-a279-12d31c633142,PCP136714,20 MAIN ST,TAUNTON,MA,02780-2733,41.903324,-71.094987,,4391.439999999998,34
95199bbc-9339-3835-bfa5-2a5ca6b28de6,PCP136987,49 WALNUT PARK,WELLESLEY,MA,02481,42.305932,-71.282917,,3616.4799999999987,28
3e259e26-b940-3d73-b9eb-201e266b9ebd,PCP137139,1964 BOSTON RD,WILBRAHAM,MA,01095-1055,42.126883,-72.430952,,5037.239999999997,39
5f5140f3-df3b-3af2-bc42-a671fc6a5a28,PCP137171,17 N AVE,ROCKLAND,MA,02370-2123,42.129251000000004,-70.908736,,14465.919999999987,112
92377c0c-4047-35a0-86dc-870e614099ea,PCP137290,1 COTTAGE ST,PEPPERELL,MA,01463-1504,42.670643,-71.602858,,4003.959999999998,31
31443b29-9fc0-3abd-b119-2ebc1ee64e17,PCP137753,70 COURT ST,WESTFIELD,MA,01085-1855,42.138838,-72.755911,,6974.639999999995,54
ed0add35-4403-3e92-b702-89faaf2922bb,PCP138710,1017 TURNPIKE ST,CANTON,MA,02021-2847,42.175737,-71.125385,,5424.719999999997,42
cd78e27b-c9fa-3144-80b5-c67a7bf4ceca,PCP139247,46 COLUMBIA RD,PEMBROKE,MA,02359-1862,42.067803999999995,-70.805713,,258.32,2
ee643956-0707-3655-8c92-eaed0ec0fb12,PCP139674,1122 RIVERSIDE AVE,SOMERSET,MA,02726-2840,41.738479,-71.165065,,5683.039999999996,44
8a9411ac-7762-32ed-8393-d684f4b52339,NORTHEAST ORTHOPEDIC ASSOCIATES  PC,250 POND ST,BRAINTREE,MA,02184-5351,42.205416,-71.00216800000003,781-461-4543,1291.6000000000001,10
9756f992-56ac-3b21-bcec-47613b4962de,GROVE MEDICAL ASSOCIATES  PC,250 HAMPTON ST,AUBURN,MA,01501-2584,42.198708,-71.846006,508-753-2060,6199.679999999996,48
96c62291-743d-35cd-89a9-4d07d6de6c78,PCP141606,341 WESTERN AVE,LYNN,MA,01904-3024,42.474862,-70.96218499999999,,3745.6399999999985,29
5eea8ebc-8657-3681-a781-b01da9aacab1,PCP142478,126 COMMONWEALTH AVE,DEDHAM,MA,02026-1441,42.246871999999996,-71.179462,,3874.7999999999984,30
ce3e8f0c-4256-36a9-81e6-da05c5226103,PCP142809,415 BOSTON TPKE,SHREWSBURY,MA,01545-3414,42.284766999999995,-71.714228,,4908.079999999997,38
68d3d96d-1cfc-3a8c-9985-bbe0457922de,PCP143203,612 WASHINGTON ST,CANTON,MA,02021-3032,42.175737,-71.125385,,7491.279999999994,58
621d65f9-71e7-331a-8abc-619959ca90d6,FAMILY MEDICAL ASSOCIATES  P.C.,709 WASHINGTON ST,CANTON,MA,02021-3037,42.175737,-71.125385,781-828-5351,1679.0800000000004,13
3ed98587-8c4c-33b4-9cbe-ec7fc451d2b6,PCP143874,242 JOHN WISE AVE,ESSEX,MA,01929-1027,42.64042,-70.77117199999999,,8524.559999999994,66
0be7e592-fd37-398a-8f8f-7b0d6ed751ca,PCP143934,27 WOLCOTT ST,EVERETT,MA,02149-3513,42.405938,-71.054649,,4003.959999999998,31
cc55a45b-da92-3627-bbdf-2334698c7739,PCP143985,1236 MAIN ST,HOLYOKE,MA,01040-2955,42.211656,-72.642448,413-532-67773,3874.7999999999984,30
060d4631-3566-3d04-9205-2827b0f87c2e,PCP144782,111 EVERETT AVE,CHELSEA,MA,02150-2380,42.396824,-71.031348,,3616.4799999999987,28
81781cc9-eb50-3db3-9939-9e450eb1bce3,PCP144869,155 MAPLE ST,SPRINGFIELD,MA,01105-1828,42.115454,-72.539978,,6716.319999999995,52
bdd22eca-f670-301a-816f-d7496f9a4f86,PCP145335,216 MAIN ST,OXFORD,MA,01540-3310,42.12826,-71.8671,,3874.7999999999984,30
b7bd05ac-fd7f-313f-b87a-1c8b37e0139e,PCP145448,331 E FALMOUTH HWY,E FALMOUTH,MA,02536-6039,41.562579,-70.587349,,7878.759999999994,61
870c851a-1a2f-3a4d-b01a-6572b6f4f042,ORTHOPAEDIC SPECIALISTS OF MASSACHUSETTS PC,100 HIGHLAND ST,MILTON,MA,02186-3874,42.241557,-71.082432,617-696-9299,4133.119999999998,32
f74cc006-4808-3122-9608-a657726b7d21,PCP147459,435 FURNACE ST,MARSHFIELD,MA,02050-2328,42.115139,-70.71033100000001,,5812.199999999996,45
eacfe818-821c-3b22-a0a1-284af488f488,PCP148278,200 WESTGATE DR,BROCKTON,MA,02301-1810,42.082543,-71.024638,,4391.439999999998,34
2cfd240e-3280-34b6-96cc-daf60ad5d14f,PCP148963,21 E MAIN ST,AVON,MA,02322-1413,42.132461,-71.054013,508-586-1046,17178.279999999984,133
ec4d78b1-5947-3274-ab29-1a733fa41970,PCP149317,45 LYMAN ST,WESTBORO,MA,01581-2657,42.267441,-71.617492,,5166.399999999997,40
3d62f0b3-f6dd-343b-bcc0-25d555ce587a,PCP149413,114 WALTHAM ST,LEXINGTON,MA,02421-5409,42.445221999999994,-71.23001500000001,,4262.279999999998,33
42a836e3-7889-3d7c-b80c-98f1ecb1ae65,PCP149675,126 MERRIMACK ST,METHUEN,MA,01844-6109,42.742751,-71.178588,,4649.7599999999975,36
842a065e-d670-3f99-ab33-1f1b2ac73478,PCP152490,44 PLEASANT ST,WOBURN,MA,01801-4127,42.488769,-71.154438,,3745.6399999999985,29
9e3e3ea0-fcab-3dcc-8aa3-a08c62bc8f84,PCP153368,287 SCHOOL ST,MANSFIELD,MA,02048-1850,42.017302,-71.21641,,2583.2,20
e6c42aa8-16ff-3dfc-a43f-a887e48c07c8,PCP154267,604 MAIN ST,WOBURN,MA,01801-2924,42.488769,-71.154438,781-935-3710,6328.839999999996,50
4f0a1843-c819-3964-a2e9-2dab906b84bf,PCP154964,1440 GAR HWY,SOMERSET,MA,02726-1218,41.738479,-71.165065,,7878.759999999994,62
f0a61c19-7e38-302e-a4db-29a33a981e02,PCP155319,126 HARVARD ST,BROOKLINE,MA,02446-6426,42.323853,-71.142003,,6457.999999999995,50
150d4bec-d11c-3014-8818-45127743725d,PCP155636,69 BAYVIEW AVE,BERKLEY,MA,02779-1924,41.838060999999996,-71.07761500000001,,4133.119999999998,32
4488eebb-04e3-3858-b033-6defb5906f55,PCP155848,257 AYER RD,HARVARD,MA,01451-1108,42.504256,-71.588513,,5424.719999999997,42
cbe82dc8-6dbb-3748-9472-6482b7c0f1b2,PCP156405,260 BOSTON POST RD,WAYLAND,MA,01778-1888,42.360427,-71.361099,,6199.679999999996,48
e2a663d3-7fe3-32b5-8c77-c957f04843e2,PCP156615,1794 BRIDGE ST,DRACUT,MA,01826-2664,42.679722999999996,-71.30068,,7362.119999999994,57
b867c529-5753-3476-885d-cd15325e0537,PCP159236,55 PITTSFIELD RD,LENOX,MA,01240-2185,42.367858,-73.269763,,1291.6000000000001,10
f90cf2ac-d428-3efa-a247-6c92373a5996,PCP159648,300 MOUNT AUBURN ST,CAMBRIDGE,MA,02138-5665,42.376043,-71.11868,617-661-0567,6974.639999999995,54
d824a1d0-91c1-3bf7-984d-e1c489508e79,EYE EXAMS  LLC,339 SQUIRE RD,REVERE,MA,02151-4309,42.421005,-70.99036,781-289-5900,5424.719999999997,42
d67076df-aafc-3cec-9060-f87af7bb8c49,EVERETT FOOT CARE PC,459 BROADWAY,EVERETT,MA,02149-3614,42.405938,-71.054649,617-387-4200,9170.359999999993,71
2567a7b5-eed4-3251-9936-8cd456261e24,PCP161397,80 N AVE,ABINGTON,MA,02351-1707,42.119966999999995,-70.957211,781-982-3118,2583.2,20
219754e0-e530-3e9d-a496-987d1d7c8705,PCP161669,194 CENTRAL ST,SAUGUS,MA,01906-2107,42.468432,-71.01394599999999,,4133.119999999998,32
d6ad3c27-4d55-3dc7-ac0c-46eccfbde4e6,PCP162538,65 BOSTON POST RD W,MARLBOROUGH,MA,01752-1872,42.349616999999995,-71.547214,,3745.6399999999985,29
9f45296e-fdae-3bd8-a39f-203097f67847,PCP162578,405 GROVE ST,WORCESTER,MA,01605-1270,42.269478,-71.807783,,7232.959999999995,56
1ed12ac9-4624-3ab9-a5cd-2d4afa7591ab,PCP162634,195 RUSSELL ST,HADLEY,MA,01035-9515,42.356491,-72.568632,,3745.6399999999985,29
5e9cb3b5-e586-38b7-b621-5eac9a6aec60,PCP162896,130 CORPORATE PARK DR,PEMBROKE,MA,02359-1910,42.067803999999995,-70.805713,,7749.599999999994,60
43118573-48f9-3d27-b5d8-3089535539fb,PCP165213,24 S MAIN ST,RANDOLPH,MA,02368-4821,42.178993,-71.052654,,6457.999999999995,50
f3b73817-43cb-3762-8353-bcfb64aa9b10,PCP166078,120 STOCKWELL DR,AVON,MA,02322-1149,42.132461,-71.054013,508-232-4012,7232.959999999995,56
91889eee-22a8-3d9a-8e1d-3e55784a21f0,PCP166478,6 COURTHOUSE LN,CHELMSFORD,MA,01824-1725,42.597055,-71.3697,,5295.559999999997,41
3c8b233a-6c05-3357-b6e0-97306efcf971,PCP167629,54 MAPLE AVE B,RUTLAND,MA,01543-1527,42.388284999999996,-71.969865,,2454.04,19
622c788f-22b9-3027-a793-55b0c25e175c,PCP167851,34 MILL ST,PEMBROKE,MA,02359-3201,42.067803999999995,-70.805713,339-793-0935,2324.88,18
9dbb19cc-ead3-3b8c-9a02-430632d7dade,ORTHOPEDIC AND SPORTS PHYSICAL THERAPY  LLP,161 COLLEGE AVE,MEDFORD,MA,02155-5528,42.423844,-71.10923100000001,617-627-5102,8395.399999999994,65
bf831193-0c51-3d98-98bf-3ddd11eb4372,PCP168778,341 STATE RD,DARTMOUTH,MA,02747-4313,41.56651,-70.958229,,10461.959999999992,81
a1990b63-4dcb-34ff-a398-7c405998740d,MICHAEL J LANDMAN MD PC,25 MARSTON ST,LAWRENCE,MA,01841-2310,42.700272999999996,-71.161357,978-686-2400,2195.7200000000003,17
80ed1ec8-3bf9-3f5a-aabc-8ecffba19d95,PCP169421,490 CHAPMAN ST,CANTON,MA,02021-2039,42.175737,-71.125385,,4649.7599999999975,36
26cae56e-4ab7-3af6-815b-96c5cab3ceae,PATRIOT URGENT CARE PROFESSIONALS  PC,154 GREAT RD,BEDFORD,MA,01730-2725,42.499295000000004,-71.281889,781-430-8161,7232.959999999995,56
f43ccb73-d283-3d31-90d3-58e65ef30d0b,ADULT AND PEDIATRIC DERMATOLOGY  P.C.,340 MAPLE ST,MARLBORO,MA,01752-3295,42.349617,-71.547214,508-460-9613,8137.079999999994,63
c3363a3a-7d2c-3b98-bacd-3b3d01a2a597,FAMILY MEDICINE ASSOCIATES,75 SPRINGFIELD RD,WESTFIELD,MA,01085-1832,42.138838,-72.755911,413-562-5173,7491.279999999994,58
2acd3148-fcd7-3092-8cac-60cafaeea43e,PCP171542,189 CHURCH ST,CARLISLE,MA,01741-1854,42.53662,-71.36183199999999,978-369-5093,5424.719999999997,42
57c0b326-9c39-309d-81c1-02ec8b040db5,DANIEL E VIDERS MD PC,207 SOUTHBRIDGE ST,AUBURN,MA,01501-2548,42.198708,-71.846006,508-832-7118,6457.999999999995,50
1194315f-86cc-3c84-a983-15c606369aef,ENT SPECIALISTS  INC,72 WASHINGTON ST,TAUNTON,MA,02780-2430,41.903324,-71.094987,508-880-3460,4778.919999999997,37
f492f007-5ade-3144-8594-41fefeb19dc0,STEPHEN M DESIO MD PC,123 SUMMER ST,WORCESTER,MA,01608-1216,42.269478,-71.807783,508-363-6362,4649.7599999999975,36
e8df8938-2576-3e8a-900b-5a41220899d9,RENIN ASSOCIATES  P.C.,6 ESSEX CTR DR,PEABODY,MA,01960-2907,42.534279,-70.969782,978-531-0677,3099.8399999999992,24
f1ca4c4d-b59e-3b0a-9b15-6e67f09a2a7f,PCP172988,1330 BEACON ST,BROOKLINE,MA,02446-3202,42.323853,-71.142003,617-297-4700,4778.919999999997,37
0834a7a7-9b70-3a27-a095-6dc8a1e13ecd,PCP173215,172 CAMBRIDGE ST,BURLINGTON,MA,01803-2984,42.503227,-71.201713,,4778.919999999997,37
e0ca0c69-8ba4-35e5-aa72-ea06997ed383,HILLTOWN COMMUNITY HEALTH CENTERS INC,58 OLD N RD,WORTHINGTON,MA,01098,42.397559,-72.943392,413-238-5511,6457.999999999995,50
5a8f2730-6156-364e-9bd6-49a429cf6f6b,L AND M RADIOLOGY  INC.,1 GENERAL ST,LAWRENCE,MA,01841-2961,42.700272999999996,-71.161357,978-946-8103,3745.6399999999985,29
b0ed7de1-2ddf-3b6b-9142-e02d91d49c23,HARBOR MEDICAL ASSOCIATES  INC.,135 WEBSTER ST,HANOVER,MA,02339-1200,42.122956,-70.85631,781-331-1999,4133.119999999998,32
c9abd93d-8106-37ce-8461-c8b8ee5494a9,NORTHAMPTON RADIOLOGIC ASSOCIATES  INC.,238 NORTHAMPTON ST,EASTHAMPTON,MA,01027-1046,42.265435,-72.670813,413-529-9300,3745.6399999999985,29
620d4a8a-ef3b-30c4-9c58-a409e8f3b7f1,POSTUM EYE CARE INC,13 MECHANIC ST,BELLINGHAM,MA,02019-9998,42.076682,-71.47449,508-657-1242,7232.959999999995,56
0f8cbd41-7442-3e09-bc56-4186fd47d1d5,PCP176263,82 WILLOW ST,FLORENCE,MA,01062-2640,42.327044,-72.67463000000002,,1937.4000000000005,15
cd5a5e65-daa9-39a1-bed9-070c1372c575,PCP176266,42 EDWARDS ST,SOUTHBRIDGE,MA,01550-1937,42.059669,-72.03404,774-318-1806,3874.7999999999984,30
50396b58-b51a-3165-9a94-78b17bb7c09e,PCP176479,145 WHITTIER RD,MILTON,MA,02186-3736,42.241557,-71.082432,617-322-1544,10203.639999999992,79
29769c4a-4330-3209-b546-1e1f12c7adc5,EYE CARE SPECIALISTS PC,31 PINE ST,NORFOLK,MA,02056-1642,42.116244,-71.329274,508-623-3880,1291.6000000000001,10
0eb6a07b-1d9c-3545-b850-b165646462ba,PCP178064,32 S MAIN ST,RANDOLPH,MA,02368-4835,42.178993,-71.052654,,3745.6399999999985,29
b62bd2d8-9931-3326-834f-3b32bf7b18e6,PCP178484,541 HIGH ST,WESTWOOD,MA,02090-1628,42.219645,-71.216768,781-326-1128,7878.759999999994,61
35763b90-63ab-3c6a-895a-8c83bfa6bd3c,PCP178557,146 MAIN ST,NORFOLK,MA,02056-1322,42.116244,-71.329274,,3616.4799999999987,28
b43891e9-15b2-3dd0-ae9a-319739ed65ba,PCP179741,490 N MAIN ST,RANDOLPH,MA,02368-3741,42.178993,-71.052654,,4003.959999999998,31
ab5f5275-bbd9-3df2-8f9e-f3568374d4dd,PCP179806,332 WASHINGTON ST,WELLESLEY HILLS,MA,02481-6219,42.30539,-71.28366899999997,,3745.6399999999985,30
59029440-c787-39fb-8ad9-8e2e14ae018a,PCP180419,730 MAIN ST,MILLIS,MA,02054-1612,42.173103000000005,-71.36375600000001,,3616.4799999999987,28
b676de67-931a-3be2-b6c0-88a269627545,BEVERLY RADIOLOGY ASSOCIATES  INC.,2 BLACKBURN PLACE,GLOUCESTER,MA,01930,42.62885,-70.685875,978-281-1500,4520.599999999998,35
172fa697-b6ae-3c27-a9ae-c4c162322d70,CHELMSFORD MRI  P.C.,3640 MAIN ST,SPRINGFIELD,MA,01107-1139,42.115454,-72.539978,413-781-9000,3616.4799999999987,28
25f6c62e-0577-32fb-bdf9-b9b3c0b3140c,MARBLEHEAD COUNSELING CENTER INC,66 CLIFTON AVE,MARBLEHEAD,MA,01945-1737,42.495629,-70.83582,781-631-8273,6587.159999999995,51
ed37b212-5a58-3d69-9cb0-942f9ec658ea,PCP182421,297 N ST,HYANNIS,MA,02601-5135,41.647227,-70.249978,508-237-7564,5941.359999999996,46
4fa341c0-f4cd-3d61-9216-d4e26bf3cf8d,PCP183126,1176 MEMORIAL DR,CHICOPEE,MA,01020-3958,42.175668,-72.572257,,5166.399999999997,40
e076e490-31fb-32e0-acaf-48526bbe8c5d,BAY STATE EYE CARE  PC,1 N MAIN ST,MANSFIELD,MA,02048-2227,42.017302,-71.21641,508-339-7600,4520.599999999998,35
1d0d0bed-ccfb-3c81-8642-e3c034361723,BOSTON PAIN CLINIC AND PRIMARY CARE PC,188 PROVIDENCE ST,HYDE PARK,MA,02136-1856,42.33196,-71.020173,617-833-6100,1679.0800000000004,13
f3e48571-0cfd-3542-8a63-02c8da9e0179,ANGELS NEUROLOGICAL CENTERS,536 WASHINGTON ST,ABINGTON,MA,02351-2465,42.119966999999995,-70.957211,781-870-3773,3874.7999999999984,30
56a38ca0-3e76-3ec7-8781-c0fd559345bd,PCP184847,19 BRIDLE PATH RD,LYNN,MA,01904-1260,42.474862,-70.96218499999999,617-257-3467,4649.7599999999975,36
5c2ac6f1-d8fa-33b4-a83d-968bd256e9c8,MASSACHUSETTS EYE ASSOCIATES PC,19 VILLAGE SQUARE,CHELMSFORD,MA,01824-2712,42.597055,-71.3697,978-454-7701,6199.679999999996,48
0b9f51ba-1e28-3875-b558-a0e49e44d75a,PCP185450,990 HUMPHREY ST,SWAMPSCOTT,MA,01907-1442,42.468059000000004,-70.89126,,8653.719999999994,67
e02c1aa7-be8d-3c44-a1dd-9f40a618094c,MT. AUBURN CARDIOLOGY ASSOCIATES  INC.,330 MOUNT AUBURN ST,CAMBRIDGE,MA,02138-5502,42.376043,-71.11868,617-497-1560,4391.439999999998,34
15558e8d-fde0-342a-a556-e3b92ea822a9,ALL CARE HOMECARE  LLC,340 COURT ST,PLYMOUTH,MA,02360-4334,41.897892,-70.62403,781-436-3352,5037.239999999997,39
17cd0bbd-7924-3e7d-9c83-db7ad8a5c430,PCP186982,125 PARKER HILL AVE,ROXBURY CROSSING,MA,02120-2847,42.33196,-71.020173,617-277-3800,3874.7999999999984,30
2af22601-e642-38dd-b032-22e0947f6b1e,PCP187044,184 W MAIN ST,NORTON,MA,02766-1243,41.965340999999995,-71.18178,,4391.439999999998,34
d26c017d-4e2c-3b8f-b5c5-af5dc5a1eb8b,PCP187126,109 ADAMS ST,SAGAMORE,MA,02561-0109,41.782888,-70.5321,508-888-5005,7620.439999999994,59
242e5bbe-87a7-3a15-8847-8ff68aba0c09,DALTON MEDICAL ASSOCIATES  LLP,33 N ST,DALTON,MA,01226-1202,42.479819,-73.15377600000001,413-684-2110,24152.919999999976,187
22637847-3263-3a72-8015-1e6345ffb62c,PCP190607,77 POND AVE,BROOKLINE,MA,02445-7115,42.323853,-71.142003,,4133.119999999998,32
7d3388dc-ebae-3cc0-acc4-13b01f5d77c1,NE NEPHROLOGY HOME CARE ASSOCIATES,42 CAPE RD,MILFORD,MA,01757-3292,42.158691999999995,-71.521419,508-634-4331,7491.279999999994,58
3d879520-4410-39af-9540-10b7a5bea964,PCP193003,35 BROOKFIELD RD,DOVER,MA,02030-1805,42.234159999999996,-71.291167,,5295.559999999997,41
176a6fd8-69ff-3a50-88f3-90c7e88ef927,MILTON RADIOLOGISTS INC,199 REEDSDALE RD,MILTON,MA,02186-3926,42.241557,-71.082432,617-696-4600,4262.279999999998,33
1a3625e3-aae0-305c-ae4b-ed26eaefa2b6,PCP193461,983 BENNINGTON ST,EAST BOSTON,MA,02128-1134,42.375541,-70.970646,,3745.6399999999985,29
8adebee3-e6cb-3c9e-a396-56969b914228,FCP  INC,9 CENTENNIAL DR,PEABODY,MA,01960-7940,42.534279,-70.969782,978-927-9410,3874.7999999999984,30
1c603070-a7ce-3d97-8e01-6e8171b34776,LOUIS B. COIRO  INC,885 MAIN ST,TEWKSBURY,MA,01876-1800,42.612088,-71.227845,978-851-8768,7103.799999999995,55
ec09c2dd-fbae-3ddd-8692-8690e8511f84,MERRIMACK UROLOGY ASSOC  PC,31 VILLAGE SQ,CHELMSFORD,MA,01824-2712,42.597055,-71.3697,978-256-9507,4262.279999999998,33
30d331f2-9873-34db-80a2-00d30ad7d21f,DRX MALDEN PROFESSIONALS PC,219 CENTRE ST,MALDEN,MA,02148-5524,42.42938,-71.058706,781-322-7300,5166.399999999997,40
f18d5ee1-c91d-35c4-90b8-c0fa2a631f5c,LIANNE INC,200 LINCOLN ST,WORCESTER,MA,01605-2528,42.269478,-71.807783,508-755-1222,6457.999999999995,50
f780607a-a54e-3913-a5fc-2d43609f708c,PCP197932,91 MAIN ST,GREENFIELD,MA,01301-3248,42.614671,-72.597063,413-648-0008,5424.719999999997,42
bbfbed2d-7be4-36d7-be7a-a4d488c5a9c7,VK NEW ENGLAND MANAGEMENT LLC,320 ESSEX ST,LAWRENCE,MA,01840-1411,42.700272999999996,-71.161357,978-655-5290,6845.479999999995,53
6b6e3359-cd17-3d26-ba37-248d9aa80763,PCP198892,100 GOULD RD,MONTEREY,MA,01245,42.186893,-73.223105,413-528-1804,2712.3599999999997,21
f4ded161-2351-3678-8c21-70a37d4dee4b,PCP199861,1387 CAREW ST,SPRINGFIELD,MA,01104-2123,42.115454,-72.539978,,6457.999999999995,50
e7f8d3e4-a56f-3178-964b-ce0f51326c58,PCP200248,22 FAIRWAY DR,NORTHBOROUGH,MA,01532-2072,42.323342,-71.646236,508-259-7684,4649.7599999999975,37
7991318e-34b0-3946-abc8-b9079b0124e7,PCP200627,70 E ST,METHUEN,MA,01844,42.742751,-71.178588,978-683-4000,3228.999999999999,25
04c5291a-2d14-3e8e-8ab6-af838b083b52,PCP200816,217 SUTTON ST,NORTH ANDOVER,MA,01845-1639,42.673909,-71.091334,,5812.199999999996,45
9771715e-35d8-3905-a511-c7b36c0f6c20,PCP201060,10 CORDAGE PARK CIR,PLYMOUTH,MA,02360-7338,41.897892,-70.62403,,4649.7599999999975,36
8e41e270-638d-36d9-a88b-6b6b548a1d5d,HALLMARK IMAGING ASSOCIATES  PC,50 ROWE ST,MELROSE,MA,02176-3201,42.455723,-71.05901899999999,781-979-3800,1291.6000000000001,10
860c886f-39b1-3fb4-9bff-d764058d012f,SOUTH SHORE OB-GYN HANOVER OB-GYN INC.,135 WEBSTER ST,HANOVER,MA,02339-1200,42.122956,-70.85631,,1679.0800000000004,13
40f9fe28-f1b1-3bfd-8d92-7c876bbefd5f,PCP201466,1446 HIGH ST,WESTWOOD,MA,02090-2743,42.219645,-71.216768,,2841.5199999999995,22
03c70f14-a54f-343d-bf46-773777a82b70,PCP201777,263 CONCORD AVE,CAMBRIDGE,MA,02138-1336,42.376043,-71.11868,978-302-8771,3099.8399999999992,24
3f545fe3-a997-367b-b97e-d87d963ab074,STEWARD NORWOOD HOSPITAL  INC.,800 WASHINGTON ST,NORWOOD,MA,02062-3487,42.187364,-71.195971,781-278-6264,4391.439999999998,34
752207c6-2e3a-3aa3-bc06-8e90e4c1fd0b,DRX UC SAUGUS PC,371 BROADWAY,SAUGUS,MA,01906-1905,42.468432,-71.01394599999999,781-233-1000,3487.319999999999,27
0ad26e82-09a2-3ffc-af1f-60d72ed54760,CHARLES RIVER MEDICAL ASSOCIATES  PC,336 UNION AVE,FRAMINGHAM,MA,01702-6355,42.307905,-71.436196,508-872-2002,3099.8399999999992,24
0ac7bab8-de9d-3e92-bab5-b47f9676554a,SOUTHEASTERN PSYCHIATRIC ASSOC,2100 DORCHESTER AVE,DORCHESTER,MA,02124-5666,42.33196,-71.020173,781-963-7775,7362.119999999994,57
cec4f074-952f-340b-8c02-33689c1b8e2b,PCP205691,170 GOVERNORS AVE,MEDFORD,MA,02155-1643,42.423844,-71.10923100000001,781-306-6890,1679.0800000000004,13
d35ae600-7dee-3e39-b28a-fedad28f9b20,PCP206078,100 HIGHLAND ST,MILTON,MA,02186-3801,42.241557,-71.082432,,8137.079999999994,63
7533082e-ead6-3a6f-8b54-f29c0fcbaf82,ICON ANESTHESIA SERVICES OF NEW ENGLAND LLC,135 LAKE ST,MIDDLETON,MA,01949-2024,42.610513,-71.007118,978-766-1150,4908.079999999997,38
c6fb7ebb-7899-39a9-8468-76a275cb1d01,PCP206978,1269 BEACON ST,BROOKLINE,MA,02446-5248,42.323853,-71.142003,617-417-8140,3228.999999999999,25
593c4aa3-6dd5-3c9d-ae3d-54808b8d3a6c,CARECENTRAL URGENT CARE MEDICAL GROUP PC,233 BROAD ST,BRIDGEWATER,MA,02324-1741,41.972376000000004,-70.978773,781-341-2800,4133.119999999998,32
69177af3-a156-3163-aff5-94422d64c4c4,KENNEDY BROTHERS P.T.,311 ARSENAL ST,WATERTOWN,MA,02472-2782,42.369451,-71.177925,617-924-5100,14982.559999999987,116
5f30b2e2-1983-39be-b08f-2ee89cade148,NEW ENGLAND COMMUNITY MEDICAL SERVICES PLLC,50 SUTHERLAND RD,BRIGHTON,MA,02135-7132,42.33196,-71.020173,617-566-1700,4133.119999999998,32
83a807c1-cad0-319d-b7c9-461698efc94a,KENNEDY BROTHERS P.T.,25 BRAINTREE HILL OFFICE PARK,BRAINTREE,MA,02184-8702,42.205416,-71.00216800000003,781-848-7300,4391.439999999998,34
72fc6638-0d8f-3d32-87d3-7c714c01a97d,PCP211156,82 MAIN ST,KINGSTON,MA,02364-2298,41.987196000000004,-70.74194200000001,508-863-0912,3487.319999999999,27
de3ab9bb-6f83-3a1b-ac5c-c90e38d75b58,ANGELS NEUROLOGICAL CENTERS,77 ACCESS RD,NORWOOD,MA,02062-5244,42.187364,-71.195971,781-871-3773,3228.999999999999,25
156ebf1b-4e3e-38e0-94b3-53520b2f0e35,METROWEST ORAL SURGICAL ASSOCIATES,172 MAIN ST,NORTHBOROUGH,MA,01532-1624,42.323342,-71.646236,508-393-1223,4778.919999999997,37
40804e41-b3a3-36d7-8586-74cd9cf79a4e,PCP212451,25 COBB RD,ASHBURNHAM,MA,01430-1210,42.648697,-71.919896,978-827-0770,4391.439999999998,34
0982db2c-c422-3e3e-bbf5-fe4bdb5c7c67,PCP212787,20 SCHOOL ST,SOUTH DARTMOUTH,MA,02748-3815,41.661303,-70.937913,508-996-0602,4649.7599999999975,36
0bbac7c1-4170-3ba4-97ba-4cd824c58049,COMMONWEALTH SURGICAL ASSOCIATES PC,91 MONTVALE AVE,STONEHAM,MA,02180-3616,42.474208000000004,-71.097665,781-279-1123,3874.7999999999984,30
a5530c03-92be-3445-a061-ac9dc67bf04d,GYNECOLOGY PARTNERS P.C.,45 COLPITTS RD,WESTON,MA,02493-1546,42.360502000000004,-71.303433,781-899-7778,5553.8799999999965,43
2aa968f9-f021-32c3-8a11-2ad46896cdf3,MILTON CARDIAC TESTING  P.C.,92 HIGHLAND ST,MILTON,MA,02186-3800,42.241557,-71.082432,617-696-4600,4649.7599999999975,36
6c2cc3eb-72c0-3b09-b1f9-88782da2527a,PONDVILLE MEDICAL ASSOCIATES LLC,31 PINE ST,NORFOLK,MA,02056-1680,42.116244,-71.329274,508-623-3700,3487.319999999999,27
c69e9935-9b89-3f07-bc89-a4f298925a27,PCP217664,112 WESTFIELD ST,W SPRINGFIELD,MA,01089-2578,42.125451,-72.649734,,17436.599999999984,135
f2510b65-4c3b-33ec-8460-4cf01bbc811d,PCP217897,136 HIGH ST EXTENTION,LANCASTER,MA,01523,42.483569,-71.675585,,10074.479999999992,78
646557d0-85d7-3f4e-823b-f946a8dd6bca,COMMUNITY HEALTH CONNECTIONS  INC,326 NICHOLS RD,FITCHBURG,MA,01420-1914,42.601977000000005,-71.81586999999999,978-878-8100,4649.7599999999975,36
5f3f1316-9911-3702-bf05-7db034c53b9d,HOLYOKE HEALTH CENTER INC.,505 FRONT ST,CHICOPEE,MA,01013-3140,42.175668,-72.572257,413-420-2222,18857.359999999982,146
43a706b0-19f7-3a1f-8f7b-c113e67faf39,PCP218953,290 MERRIMACK ST,LAWRENCE,MA,01843-1783,42.700272999999996,-71.161357,,4003.959999999998,31
2b912abb-34b1-3aa1-8945-5ca124681e58,PCP219071,2 HANCOCK ST,QUINCY,MA,02171-1766,42.261006,-71.008988,617-953-4106,8395.399999999994,65
0a6b7551-0995-3a49-93e7-56389ddae280,ACHIEVE TMS CENTERS EAST PC,3550 MAIN ST,SPRINGFIELD,MA,01107-1078,42.115454,-72.539978,413-203-6922,3358.159999999999,26
d0257759-aa69-329b-bff2-e3f517829a48,BRIDGEWELL  INC,66 SILSBEE ST,LYNN,MA,01901-1414,42.474862,-70.96218499999999,781-581-9270,2324.88,18
f90b4c7d-790a-3621-8a1e-a1bde29e04ca,CHILDREN'S HOSPITAL PATHOLOGY FOUNDATION  INC.,300 LONGWOOD AVE,BOSTON,MA,02115-5724,42.338551,-71.018253,617-355-6000,5812.199999999996,45
f57eee38-617a-3908-9163-1af5bbb04ad3,PCP223037,818 OAK ST,BROCKTON,MA,02301-1107,42.082543,-71.024638,,3228.999999999999,25
1b39a3a7-d761-39c8-b66d-a76bc7c938e3,SOUTH COVE COMMUNITY HEALTH CENTER INC,885 WASHINGTON ST,BOSTON,MA,02111-1415,42.338551,-71.018253,617-482-7555,3745.6399999999985,29
a356b345-e72b-3291-b161-45479775701e,PCP224959,450 W RIVER ST,ORANGE,MA,01364-1447,42.605437,-72.292074,,4649.7599999999975,36
847d7c21-2c73-3c15-b1cf-a8f956f1c91d,CARLETON WILLARD HOMES INC,100 OLD BILLERICA RD,BEDFORD,MA,01730-1283,42.499295000000004,-71.281889,781-275-8700,2066.5600000000004,16
ce9b73b9-27c6-30ff-8b04-9cff8d5f9208,PCP226751,136 HIGH ST EXT,LANCASTER,MA,01523-2056,42.483569,-71.675585,978-365-7418,3487.319999999999,27
2d19d984-3cc4-3409-8857-ace5c74b3f7a,PARTNERS IN REHABILITATION LLC,880 BROADWAY,SAUGUS,MA,01906-3284,42.468432,-71.01394599999999,781-233-2111,6587.159999999995,51
1f17c81e-b468-3be8-859a-8424d9a5192e,PCP227865,330 LYNNWAY,LYNN,MA,01901-1713,42.474862,-70.96218499999999,,4133.119999999998,32
3fb76bb8-2dd5-3d09-955a-e7909a366062,COMMUNITY PHYSICIANS ASSOC INC,100 HIGHLAND ST,MILTON,MA,02186-3881,42.241557,-71.082432,,7620.439999999994,59
77ebe09d-33e2-32ac-bf9c-0886c8617f8a,HOLYOKE PEDIATRAIC ASSOCIATES LLP,150 LOWER WESTFIELD RD,HOLYOKE,MA,01040-2767,42.211656,-72.642448,413-536-2393,4262.279999999998,33
047243b1-fdc9-34a7-9600-33d2e3444ec1,PCP229146,742 WASHINGTON ST,CANTON,MA,02021-3039,42.175737,-71.125385,,5295.559999999997,41
dbadb34a-1bc4-3cd1-9903-b8ff46c8b9d8,PCP229646,8 BUTLER ST,BLACKSTONE,MA,01504-1541,42.039991,-71.53240600000001,,3745.6399999999985,29
af1ff751-0d1f-3680-902e-cd825999ee87,MERCY INPATIENT MEDICAL ASSOCIATES INC,12 GAMELIN ST,HOLYOKE,MA,01040-4080,42.211656,-72.642448,413-420-2500,5941.359999999996,46
d38dc1a5-635e-3867-b80f-9eba793baaa6,NEW ENGLAND EYE INSTITUTE  INC.,4199 WASHINGTON ST,ROSLINDALE,MA,02131-1733,42.33196,-71.020173,617-323-7300,4649.7599999999975,37
186d51cf-c227-3185-ad96-68ba7549001b,SPRINGFIELD ANESTHESIA SERVICE INC.,164 HIGH ST,GREENFIELD,MA,01301-2613,42.614671,-72.597063,413-796-7494,3616.4799999999987,28
16283004-9a89-395a-9224-77b983f67778,DANA FARBER CANCER INSTITUTE  INC,20 PROSPECT ST,MILFORD,MA,01757-3026,42.158691999999995,-71.521419,508-478-2061,2454.04,19
75bdb2ec-cbd0-35af-b0fe-18b111890b67,PCP235727,67 SLADES FERRY BLVD,SOMERSET,MA,02726,41.738479,-71.165065,,9816.159999999993,76
76a80350-916e-3fc9-8fed-2c8c4b36c42f,NORTH SUFFOLK MENTAL HEALTH ASSOCIATION  INC.,301 BROADWAY,CHELSEA,MA,02150-2807,42.396824,-71.031348,617-912-7900,8395.399999999994,65
f49668cb-3c19-39f4-b42f-3ef52f60f784,VHM SERVICES INC,260 COCHITUATE RD,FRAMINGHAM,MA,01701-4608,42.307905,-71.436196,508-686-6672,3745.6399999999985,29
cb31390a-a635-3345-a2d3-40ade066fb23,NEWTON WELLESLEY EYE ASSOCIATES  P.C.,2000 WASHINGTON ST,NEWTON,MA,02462-1628,42.331876,-71.208402,617-964-1050,5037.239999999997,39
7e6578a0-ea51-389d-bda5-6822d503d0f9,PCP238989,115 MILL ST,BELMONT,MA,02478-1048,42.395317,-71.180284,617-855-2660,4262.279999999998,33
