Id,NAME,ADDRESS,CITY,STATE,ZIP,LAT,LON,PHONE,REVENUE,UTILIZATION
ef58ea08-d883-3957-8300-150554edc8fb,HEALTHALLIANCE HOSPITALS  INC,60 HOSPITAL ROAD,LEOMINSTER,MA,01453,42.520838,-71.770876,9784662000,955.73,11
69176529-fd1f-3b3f-abce-a0a3626769eb,MOUNT AUBURN HOSPITAL,330 MOUNT AUBURN STREET,CAMBRIDGE,MA,02138,42.375967,-71.118275,6174923500,2118.08,26
5e765f2b-e908-3888-9fc7-df2cb87beb58,STURDY MEMORIAL HOSPITAL,211 PARK STREET,ATTLEBORO,MA,02703,41.931653,-71.294503,5082225200,2686.3299999999986,34
f1fbcbfb-fcfa-3bd2-b7f4-df20f1b3c3a4,LAWRENCE GENERAL HOSPITAL,ONE GENERAL STREET,LAWRENCE,MA,01842,42.700273,-71.161357,9786834000,5785.95999999999,72
e002090d-4e92-300e-b41e-7d1f21dee4c6,CAMBRIDGE HEALTH ALLIANCE,1493 CAMBRIDGE STREET,CAMBRIDGE,MA,02138,42.375967,-71.118275,6176652300,3047.9599999999978,38
ef6ab57c-ed94-3dbe-9861-812d515918b3,CAPE COD HOSPITAL,88 LEWIS BAY ROAD,HYANNIS,MA,02601,41.748854,-70.74053599999998,5087711800,3435.409999999996,43
49318f80-bd8b-3fc7-a096-ac43088b0c12,COOLEY DICKINSON HOSPITAL INC THE,30 LOCUST STREET,NORTHAMPTON,MA,01060,42.327044,-72.67463000000002,4135822000,1678.9900000000002,19
fbf6180e-b800-3ebe-b91d-93d0288c400e,BAYSTATE FRANKLIN MEDICAL CENTER,164 HIGH STREET,GREENFIELD,MA,01301,42.614671,-72.597063,4137730211,2737.999999999998,34
8b58cdd1-3d79-3126-8fe0-da2c54d6805c,CARNEY HOSPITAL,2100 DORCHESTER AVENUE,BOSTON,MA,02124,42.33196,-71.020173,6175062000,749.0799999999999,9
4bdaa4c2-c664-3089-aee2-7137abbad27f,HARRINGTON MEMORIAL HOSPITAL-1,100 SOUTH STREET,SOUTHBRIDGE,MA,01550,42.059669,-72.03404,5087659771,2195.5699999999997,27
ecc51621-0af3-3b35-ac3e-8b1e34022e92,SAINT ANNE'S HOSPITAL,795 MIDDLE STREET,FALL RIVER,MA,02721,41.725351,-71.094162,5086745600,1730.66,19
5d4b9df1-93ae-3bc9-b680-03249990e558,HOLYOKE MEDICAL CENTER,575 BEECH STREET,HOLYOKE,MA,01040,42.211656,-72.642448,4135342500,1446.49,18
37b4d73f-652d-3033-a16e-d97b9e8b4cda,ANNA JAQUES HOSPITAL,25 HIGHLAND AVENUE,NEWBURYPORT,MA,01950,42.812141,-70.886646,9784631000,774.9,10
5844ad77-f653-3c2b-b7dd-e97576ab3b03,BAYSTATE WING HOSPITAL AND MEDICAL CENTERS,40 WRIGHT STREET,PALMER,MA,01069,42.187794,-72.30846899999997,4132837651,2324.7299999999996,28
08bcda9c-f8c8-3244-82d4-fc306a7a55d3,BOSTON MEDICAL CENTER CORPORATION-,1 BOSTON MEDICAL CENTER PLACE,BOSTON,MA,02118,42.33196,-71.020173,6176388000,129.16,1
37c0de84-bcaf-3624-82bf-a89b2ac441b8,BEVERLY HOSPITAL CORPORATION,85 HERRICK STREET,BEVERLY,MA,01915,42.556659,-70.84496,9789223000,1601.47,20
4861d01f-019c-3dac-a153-8334e50919f9,NORTH SHORE MEDICAL CENTER -,81 HIGHLAND AVENUE,SALEM,MA,01970,42.50128,-70.897502,9787411215,3228.7899999999972,39
a0b6ec0c-e587-3b2a-bf9f-248849f29ee5,ST ELIZABETH'S MEDICAL CENTER,736 CAMBRIDGE STREET,BRIGHTON,MA,02135,42.33196,-71.020173,6177893000,154.98,2
4f3a530e-a2f7-3de0-9a09-c0a70a9ab894,BERKSHIRE MEDICAL CENTER INC - 1,725 NORTH STREET,PITTSFIELD,MA,01201,42.452045,-73.26054,4134472000,2298.91,27
f71ce1a9-cca7-3295-9a1e-c88ac3479b6f,MARLBOROUGH HOSPITAL,157 UNION STREET,MARLBOROUGH,MA,01752,42.349617,-71.547214,5084815000,1911.43,24
c44f361c-2efb-3050-8f97-0354a12e2920,SIGNATURE HEALTHCARE BROCKTON HOSPITAL,680 CENTER STREET,BROCKTON,MA,02302,42.082543,-71.024638,5089417000,2453.8599999999988,31
331f4c11-d298-308b-aaa1-d7825b29b57f,CLINTON HOSPITAL ASSOCIATION,201 HIGHLAND STREET,CLINTON,MA,01510,42.411887,-71.690005,9783683000,619.92,8
b1ddf812-1fdd-3adf-b1d5-32cc8bd07ebb,BETH ISRAEL DEACONESS HOSPITAL - PLYMOUTH,275 SANDWICH STREET,PLYMOUTH,MA,02360,41.897892,-70.62403,5087462000,4675.279999999993,57
6be05ccf-ef94-341f-a2a3-1cf9bfde1b18,ADCARE HOSPITAL OF WORCESTER INC,107 LINCOLN STREET,WORCESTER,MA,01605,42.269478,-71.807783,5087999000,1704.78,22
b0e04623-b02c-3f8b-92ea-943fc4db60da,LOWELL GENERAL HOSPITAL,295 VARNUM AVENUE,LOWELL,MA,01854,42.638893,-71.32210699999997,9789376000,1937.28,23
ebc3f5c4-6700-34af-8323-85621c313726,NOBLE HOSPITAL,115 WEST SILVER STREET,WESTFIELD,MA,01085,42.138838,-72.755911,4135682811,490.78999999999996,6
fd328395-ab1d-35c6-a2d0-d05a9a79cf11,MERCY MEDICAL CTR,271 CAREW STREET,SPRINGFIELD,MA,01104,42.115454,-72.539978,4137489000,413.29999999999995,4
d692e283-0833-3201-8e55-4f868a9c0736,HALLMARK HEALTH SYSTEM,585 LEBANON STREET,MELROSE,MA,02176,42.455723,-71.05901899999998,7819793000,4210.339999999995,51
8ad64ecf-c817-3753-bee7-006a8e662e06,MORTON HOSPITAL,88 WASHINGTON STREET,TAUNTON,MA,02780,41.903323,-71.094984,5088287000,2686.3599999999988,32
23834663-ed53-3da9-b330-d6e1ecb8428e,SOUTHCOAST HOSPITAL GROUP  INC,363 HIGHLAND AVENUE,FALL RIVER,MA,02720,41.725351,-71.094162,5086793131,1937.2800000000002,23
44bef9d3-91c2-3005-93e0-ccf436348ff0,MASSACHUSETTS EYE AND EAR INFIRMARY -,243 CHARLES STREET,BOSTON,MA,02114,42.33196,-71.020173,6175237900,774.9,10
60457c13-adb2-3415-82c5-86ab5dab5f93,BAYSTATE MEDICAL CENTER,759 CHESTNUT STREET,SPRINGFIELD,MA,01199,42.115454,-72.539978,4137940000,490.79,5
a9f20dc1-5147-3789-bcef-bbecb41c5983,HOLY FAMILY HOSPITAL,70 EAST STREET,METHUEN,MA,01844,42.742751,-71.178588,9786870156,2453.8599999999988,31
7fb56531-86bd-3e4a-8619-4df9942da309,BETH ISRAEL DEACONESS HOSPITAL - NEEDHAM,148 CHESTNUT STREET,NEEDHAM,MA,02494,42.281593,-71.242414,7814533002,1988.92,25
03347b4d-994e-302b-848b-58019a4e274d,EMERSON HOSPITAL -,133 OLD ROAD TO 9 ACRE CORNER,W CONCORD,MA,01742,42.269478,-71.807783,9783691400,361.63,4
cb6a50e0-af76-3758-99ad-3200ede03fff,BETH ISRAEL DEACONESS MEDICAL CENTER,330 BROOKLINE AVENUE,BOSTON,MA,02215,42.33196,-71.020173,6176677000,619.92,8
24cb4eab-6166-3530-bddc-a5a8a14a4fc1,MILFORD REGIONAL MEDICAL CENTER,14 PROSPECT STREET,MILFORD,MA,01757,42.158692,-71.521419,5084731190,1859.79,22
e44f438a-601b-30fb-85eb-bfaf8ddcb5ad,HEYWOOD HOSPITAL -,242 GREEN STREET,GARDNER,MA,01440,42.586516,-71.988062,9786323420,387.45,5
ac8356a5-78f8-3a63-8a1e-59e832fd54e7,NASHOBA VALLEY MEDICAL CENTER,200 GROTON ROAD,AYER,MA,01432,42.562221,-71.58484399999998,9787849000,439.12,5
db0acede-4abe-3c01-8d03-5c68a190d8c7,SOUTH SHORE HOSPITAL,55 FOGG ROAD,SOUTH WEYMOUTH,MA,02190,42.24158900000001,-71.082651,7813408000,1833.94,23
3d10019f-c88e-3de5-9916-6107b9c0263d,NEWTON-WELLESLEY HOSPITAL,2014 WASHINGTON STREET,NEWTON,MA,02462,42.331876,-71.208402,6172436000,2298.879999999999,29
f4e7709c-02f6-37ca-aeea-8247d74e88e7,WINCHESTER HOSPITAL,41 HIGHLAND AVENUE,WINCHESTER,MA,01890,42.452752,-71.144319,7817299000,2531.349999999999,32
12c9daf5-a29c-36c9-ac55-28972463e566,BETH ISRAEL DEACONESS HOSPITAL-MILTON INC,199 REEDSDALE ROAD,MILTON,MA,02186,42.24158900000001,-71.082651,6176964600,3047.9599999999973,38
27379046-608b-32f0-9df7-8c833cf5d11d,BRIGHAM AND WOMEN'S HOSPITAL,75 FRANCIS STREET,BOSTON,MA,02115,42.33196,-71.020173,6177325500,129.16,1
226098a2-6a40-3588-b5bb-db56c3a30a04,GOOD SAMARITAN MEDICAL CENTER,235 NORTH PEARL STREET,BROCKTON,MA,02301,42.082543,-71.024638,5084273000,2169.7499999999995,26
b7175ab4-bde5-3848-891b-579bccb77c7c,TUFTS MEDICAL CENTER,800 WASHINGTON STREET,BOSTON,MA,02111,42.33196,-71.020173,6176365000,723.26,8
d733d4a9-080d-3593-b910-2366e652b7ea,BRIGHAM AND WOMEN'S FAULKNER HOSPITAL,1153 CENTRE STREET,BOSTON,MA,02130,42.33196,-71.020173,6179837000,154.98,2
3bd5eda0-16da-3ba5-8500-4dfd6ae118b8,NORWOOD HOSPITAL,800 WASHINGTON STREET,NORWOOD,MA,02062,42.18736,-71.195955,5087721000,929.88,12
d5117822-5756-389d-9547-891a372d580f,FALMOUTH HOSPITAL,67 & 100 TER HEUN DRIVE,FALMOUTH,MA,02540,41.57072,-70.556682,5085485300,5321.019999999991,66
f99c74cc-7d1a-3f95-9a33-4a9357bf2f2a,UMASS MEMORIAL MEDICAL CENTER INC,55 LAKE AVENUE NORTH,WORCESTER,MA,01655,42.269478,-71.807783,5083341000,154.98,2
6f122869-a856-3d65-8db9-099bf4f5bbb8,LAHEY HOSPITAL & MEDICAL CENTER  BURLINGTON,41 & 45 MALL ROAD,BURLINGTON,MA,01803,42.503227,-71.201713,7817445100,4184.489999999994,52
465de31f-3098-365c-af70-48a071e1f5aa,METROWEST MEDICAL CENTER,115 LINCOLN STREET,FRAMINGHAM,MA,01701,42.307905,-71.436196,5083831000,2350.5499999999993,29
1eaf97fa-9de6-38de-a9c4-6efe5dc574be,ST VINCENT HOSPITAL,123 SUMMER STREET,WORCESTER,MA,01608,42.269478,-71.807783,5083635000,671.59,8
80e919cc-df1a-3838-b75e-541564a286e5,NANTUCKET COTTAGE HOSPITAL,57 PROSPECT STREET,NANTUCKET,MA,02554,41.293416,-70.10216899999999,5082281200,2066.41,26
56e0b3b3-4fac-3776-8fc9-7b465eb2fc17,FAIRVIEW HOSPITAL,29 LEWIS AVENUE,GREAT BARRINGTON,MA,01230,42.19397,-73.361473,4135280790,154.98,2
161a799c-4894-36f6-8ca7-2a71c8107f79,ATHOL MEMORIAL HOSPITAL,2033 MAIN STREET,ATHOL,MA,01331,42.593384,-72.230228,9782493511,387.48,3
5103c940-0c08-392f-95cd-446e0cea042a,SHRINERS' HOSPITAL FOR CHILDREN (THE),516 CAREW STREET,SPRINGFIELD,MA,01104,42.115454,-72.539978,4137872000,619.92,8
ff9863d3-3fa3-3861-900e-f00148f5d9c2,SHRINERS' HOSPITAL FOR CHILDREN - BOSTON  THE,51 BLOSSOM STREET,BOSTON,MA,02114,42.33196,-71.020173,6177223000,232.46999999999997,3
05f449e8-89fc-3204-ac89-2416cc734431,PCP61,124 HARVARD ST,BROOKLINE,MA,02446-6499,42.323853,-71.142003,617-285-3777,3874.7999999999984,30
d5f4875f-6df2-32a8-a01b-47267f47fc49,TERRI PEREIRA,221 BOSTON POST RD,MARLBORO,MA,01752-3586,42.349617,-71.547214,508-481-5519,5812.199999999996,45
74e00d14-2bbf-3cf3-ae7a-71077abf5f3c,PCP148,175 ELM ST,SALISBURY,MA,01952-1828,42.844794,-70.841499,978-828-2053,3358.159999999999,26
bc1469ec-a5f4-3102-93c6-8f7a991fb161,PCP928,1842 BEACON ST,BROOKLINE,MA,02445-1900,42.323853,-71.142003,781-690-1317,5037.239999999997,39
896d517f-a56a-3770-a32e-15bbd57d36cb,PCP1142,157 COLUMBIA DR,AMHERST,MA,01002-3107,42.363534,-72.50729100000001,413-348-9367,3616.4799999999987,28
2fc2b347-cb6b-3e5e-9755-c8d08692e526,PCP1309,533 MAIN ST,MELROSE,MA,02176-3858,42.455723,-71.05901899999999,781-526-0992,8912.039999999994,69
c3c871ec-0844-3052-95d2-893c6fb54b65,PCP1435,36 WOBURN ST,READING,MA,01867-2903,42.535183,-71.105423,781-942-2612,11236.919999999991,87
dd1f04b3-54cd-3ff0-96e3-a9aec2078301,PCP1444,5 E MAIN ST,MERRIMAC,MA,01860-2005,42.838603000000006,-71.011997,978-346-4450,12011.87999999999,93
b0bc9a3f-9875-3126-913f-1e1c1a01eb16,PCP1470,1 BRANCH ST,METHUEN,MA,01844-1923,42.742751,-71.178588,978-984-5748,3745.6399999999985,29
277aea7a-ec5f-3dfc-b430-e5e68f599033,PCP1555,22 MILL ST,ARLINGTON,MA,02476-4744,42.418721999999995,-71.163912,781-643-9266,6457.999999999995,50
1dc3e5ea-c4e5-3921-8091-f93f95e6b114,PCP1847,54 NONSET PATH,ACTON,MA,01720-4720,42.483953,-71.43849499999999,978-413-9445,5295.559999999997,41
0aef5bb7-af50-38c6-934a-8f5a25d81fd1,PCP1909,101 ADAMS ST,QUINCY,MA,02169-2022,42.261006,-71.008988,617-471-0307,5166.399999999997,40
d4587d01-17f5-3378-b6f9-fd7bbe74a560,PCP2015,2 OAK ST,MASHPEE,MA,02649,41.617622999999995,-70.492713,508-274-6392,7362.119999999994,57
6cb36205-a8ea-322b-8376-c9c7dc6121df,PCP2054,352 PARK ST,NORTH READING,MA,01864-2164,42.578222,-71.084398,978-290-1295,2454.04,19
fba650b9-705d-34d1-a694-d5e24c5d6f76,PCP2335,435 NEWBURY ST,DANVERS,MA,01923-1065,42.574174,-70.95051600000001,978-777-3227,7362.119999999994,57
587d0784-c2dd-3e1b-8742-64ae2df67f49,PCP2388,639 GRANITE ST,BRAINTREE,MA,02184-5370,42.205416,-71.00216800000003,781-775-3018,6845.479999999995,53
026f9974-8b5a-3925-becd-87b049825f1b,PCP2513,733 CHAPIN ST,LUDLOW,MA,01056-1900,42.183577,-72.457812,413-626-5340,2583.2,20
518271fa-2372-3b99-9b3f-a9ccc3cfc33b,PCP2704,31 HASTINGS ST,MENDON,MA,01756-1090,42.09387,-71.544519,508-473-12005,6587.159999999995,51
819a27bd-81d7-3aec-b990-e79062cd0fd0,PCP2795,161 WASHINGTON ST,WALPOLE,MA,02032-1196,42.146285999999996,-71.255604,781-318-8018,7103.799999999995,55
cbca2a7d-71ee-328e-8cfc-56f35f27d248,PCP2870,35 S ST,BARRE,MA,01005-8890,42.418848,-72.10659799999999,978-257-80620,3616.4799999999987,28
433c8aea-1ab2-374e-a879-7c6fd0d3c4e6,PCP3099,1 FITCHBURG ST,SOMERVILLE,MA,02143-2127,42.390445,-71.101033,617-930-6902,5812.199999999996,45
2ebefc07-59cd-361b-8179-085b58e89044,PCP3467,705 CENTRE ST,JAMAICA PLAIN,MA,02130-2598,42.33196,-71.020173,617-522-2921,3745.6399999999985,29
414083bc-a154-3b45-bfbf-397a568e2362,MALCOLM AND MARTIN GREENE OD PARTNERS,31 SPRING ST,WATERTOWN,MA,02472-3473,42.369451,-71.177925,617-924-3343,9299.519999999993,72
15b74937-eddb-3910-84fb-cfdf0d820f1d,PCP3659,1047 FALMOUTH RD,HYANNIS,MA,02601-2342,41.647227,-70.249978,508-771-0430,4520.599999999998,35
0de9633c-54dd-39cb-947c-8ab5ecdf93a2,PCP3874,2 SHAKER RD,SHIRLEY,MA,01464-2561,42.573654,-71.640986,978-425-6666,4003.959999999998,31
1b16712e-c42b-38cc-8f9c-06c60aee8f4a,PCP3958,26 WAMPUM DR,BREWER,MA,02631-1311,41.760932,-70.070392,508-896-4499,4908.079999999997,38
58fa71de-2295-33b8-8932-176a72078898,PCP4047,265 PLEASANT ST,ROCKLAND,MA,02370-1280,42.129251000000004,-70.908736,781-878-6962,7749.599999999994,60
ddee27b9-3e12-323a-b713-d10cdf15baa7,PCP4122,345 UNION ST,NEW BEDFORD,MA,02740-3679,41.661303000000004,-70.937913,508-617-3296,7103.799999999995,55
b8ddc33c-68b3-3ca8-bd6c-b01654c228bd,PCP4221,15 COURT SQUARE,BOSTON,MA,02108-2523,42.338551,-71.018253,617-723-7651,6328.839999999996,49
d86bfce3-fbc5-336b-b24e-aef844d6fe3e,PCP4233,271 MAIN ST,STONEHAM,MA,02180-3580,42.474208000000004,-71.097665,617-244-8389,6974.639999999995,54
f573704c-b330-36ba-90db-1943dea8d013,PCP4440,124 SURFSIDE RD,NANTUCKET,MA,02554-2884,41.293416,-70.10216899999999,508-364-4331,4133.119999999998,32
27ea3751-40d6-3fcc-88ad-4b7d0c710a7b,PCP4453,55 WAREHAM ST,CARVER,MA,02330-1716,41.875178999999996,-70.74671500000001,508-280-4825,4778.919999999997,37
1c7f196c-c1db-37b1-8961-c9ac96267b63,PCP4547,240 CONCORD AVE,CAMBRIDGE,MA,02138-1337,42.376043,-71.11868,617-661-0511,2195.7200000000003,17
2eede106-3a4c-31f0-93f1-22e30e24a593,PCP4573,71 SUMMER ST,HAVERHILL,MA,01830-5853,42.782945,-71.087436,603-674-2802,4778.919999999997,37
3adbc956-6e12-324b-bbf9-c297cbc531dc,PCP4890,301 EDGEWATER PL,WAKEFIELD,MA,01880-1281,42.50436,-71.064061,781-632-7708,5424.719999999997,42
b7b40287-83bb-396b-a2c6-eb74e3265d4e,PCP4961,1180 BEACON ST,BROOKLINE,MA,02446-3806,42.323853,-71.142003,617-396-7573,2454.04,19
364661ff-4fcc-3d6e-89f8-93d2570f6c3c,PCP5112,338 BOYLSTON ST,NEWTON,MA,02459-2877,42.331876,-71.208402,617-584-8510,4133.119999999998,32
e73f5da9-599e-3c0d-976f-ee2e4421f347,PCP5128,1176 MEMORIAL DR B,CHICOPEE,MA,01020-3958,42.175668,-72.572257,413-593-3101,8912.039999999994,69
56ed0ca7-04eb-35fe-928c-b3f90fea5e10,PCP5203,1234 BROADWAY,SOMERVILLE,MA,02144-1703,42.390445,-71.101033,781-608-6831,8137.079999999994,63
d4fb7b1c-8423-3477-961f-7298f92f6b94,PCP5229,ONE BROOKWOOD RD,HOLYOKE,MA,01040-9510,42.211656,-72.642448,413-533-0001,5037.239999999997,39
0ab8b96d-8968-34b7-b29f-975bccb6fb70,PCP5422,745 HIGH ST,WESTWOOD,MA,02090-2535,42.219645,-71.216768,781-775-3832,5037.239999999997,39
52cfd6b1-bb25-3447-a32a-3cbb0a7afd79,PCP5813,162 WESTBORO RD,UPTON,MA,01568-1004,42.176526,-71.603588,508-603-1455,3874.7999999999984,30
6092e2a8-bf40-3b65-9d03-9eb8e7e651c1,PCP5851,68 EVERGREEN ST,KINGSTON,MA,02364-1471,41.987196000000004,-70.74194200000001,781-585-8199,1937.4000000000005,15
3e91434d-5f96-3a78-9f37-cfa89603ae01,PCP5860,101 CENTRAL ST,ACTON,MA,01720-2725,42.483953,-71.43849499999999,978-263-6847,4520.599999999998,35
dcbcf94d-c9d0-3c0a-a781-9236447e7826,PCP6084,150 MARKET ST,LYNN,MA,01901-1529,42.474862,-70.96218499999999,617-512-2069,4262.279999999998,33
26f1b65c-0efb-36a4-a07d-50e0346f30a4,PCP6089,17 WALTHAM RD,WAYLAND,MA,01778-1128,42.360427,-71.361099,508-361-1224,7103.799999999995,56
ddd639be-74fd-3f52-8f40-04e2a4457ca3,PCP6114,440 HUMPHREY ST,SWAMPSCOTT,MA,01907-2544,42.468059000000004,-70.89126,781-598-6680,3874.7999999999984,30
7d370bcc-dba9-3314-8e0b-4b260b91b53e,PCP6468,227 E ST,METHUEN,MA,01844-5463,42.742751,-71.178588,978-683-0123,10591.119999999992,82
dc94c9de-acc6-309d-b5e7-7fded469c59b,PCP6759,41 STATE RD,DARTMOUTH,MA,02747-3319,41.56651,-70.958229,508-990-1217,4133.119999999998,32
10a9d347-0146-3fbf-b74d-8f085f1bc461,PCP6927,71 MAIN ST,WESTMINSTER,MA,01473-1472,42.5546,-71.90544,978-855-0645,1937.4000000000005,15
735d39d3-d76b-30e0-909d-df29f162c687,PCP7174,1200 CONVERSE ST,LONGMEADOW,MA,01106-1675,42.047565000000006,-72.57113000000001,413-454-7779,1937.4000000000005,15
9ede8777-9442-3a51-945d-8ccee45acff6,PCP7238,381 LIBERTY ST,HANSON,MA,02341-1166,42.050239000000005,-70.867359,781-294-4577,6716.319999999995,52
80b9b401-87ba-3995-9bc7-99e67b4c8fdf,PCP7243,158 MT AUBURN ST,CAMBRIDGE,MA,02138,42.376043,-71.11868,617-986-5136,4391.439999999998,34
973e7384-d05b-32ad-a8cc-c39191ee9150,PCP7483,152 N ST,PITTSFILED,MA,01201,42.452045,-73.26054,413-443-8480,8524.559999999994,66
b2fd88f2-97d8-3a16-9d74-6eff498c6b81,PCP7543,33 SEA ST,NORTH WEYMOUTH,MA,02191-1416,42.206676,-70.94584499999998,617-335-7671,5166.399999999997,40
7fdd295c-3ec8-3fc4-b7c8-3662ec20a4d8,PCP7565,22 MILL ST,ARLINGTON,MA,02476-4744,42.418721999999995,-71.163912,617-584-5601,7362.119999999994,57
b7950b52-2b7b-3ccf-83e2-37570828c937,PCP7709,31 AUBURN ST,AUBURN,MA,01501-2417,42.198708,-71.846006,508-832-0768,5424.719999999997,42
823ae274-1b8a-346b-943d-4ecf57c3fbbb,PCP7911,855 WORCESTER RD,FRAMINGHAM,MA,01701-5229,42.307905,-71.436196,508-907-6006,2583.2,20
c2ecccb0-f9c0-36ca-bc8f-78710b04149f,PCP8372,20 TREMONT ST,DUXBURY,MA,02332-5315,42.044307,-70.70604499999999,617-645-0973,7620.439999999994,59
8df24b2c-33bc-3b40-9696-327ad4c96065,PCP8443,84 HUTTLESTON AVE,FAIRHAVEN,MA,02719-3140,41.633619,-70.871306,508-997-3600,7362.119999999994,57
6ffe62de-5d90-3cc7-be16-643a7496c817,PCP8458,601 AMHERST RD,SUNDERLAND,MA,01375-9466,42.466691,-72.546751,413-665-3336,6199.679999999996,48
cd0fa475-11de-3239-81a4-2516d28ffd06,PCP8466,84 HIGH ST,MEDFORD,MA,02155-3844,42.423844,-71.10923100000001,781-391-6222,2583.2,20
28b427de-bbb5-3b6d-981a-b882eff234f3,PCP8590,26 S PROSPECT ST,AMHERST,MA,01002-2362,42.363534,-72.50729100000001,413-256-2600,7232.959999999995,56
2299ba38-a12b-3186-a0e4-df3156f452bb,GEORGETOWN EYE ASSOCIATES INC,2 CENTRAL ST,GEORGETOWN,MA,01833-2032,42.726188,-70.983328,978-352-5966,11107.759999999991,86
fcae3c44-95b9-3a38-ba85-2f0385345e27,PCP9004,176 OLD COUNTY RD,WESTPORT,MA,02790-1172,41.579794,-71.081822,508-636-0703,7103.799999999995,55
32836213-4ac7-3021-aad8-6383f3ced351,PCP9022,1 HOLLYWOOD DR,GRAFTON,MA,01536-1614,42.209151,-71.683644,508-839-3616,5037.239999999997,39
e960b1c8-2ce4-3e17-92ba-a638b744aaae,PRO REHAB INC PC,278 BROADWAY ST,LOWELL,MA,01854-4121,42.63898,-71.321141,978-452-6633,5295.559999999997,41
9be75bca-ba4a-34f5-a1dd-2cb1422c856a,PCP10013,120 ROUTE 28,WEST HARWICH,MA,02671-1220,41.693632,-70.105298,508-432-0020,8266.239999999994,64
3a5130c5-d7d9-35a3-89ba-269362c51341,PCP10046,23 VILLAGE INN RD,WESTMINSTER,MA,01473-1660,42.5546,-71.90544,978-870-8542,2583.2,20
06eff9e0-c5b4-39ed-8273-2f29cf5d3185,PCP10127,464 GRANITE AVE,MILTON,MA,02186-5625,42.241557,-71.082432,617-698-0998,3616.4799999999987,28
cd312d93-d23e-34c6-83ba-ccdac4749731,PCP10257,2500 MAIN ST,TEWKSBURY,MA,01876-3184,42.612088,-71.227845,978-988-9333,3099.8399999999992,24
65583707-3e0a-35e3-8c0a-37df9efe0b23,PCP10332,19 ANNASNAPPITT DR,PLYMPTON,MA,02367-1718,41.9591,-70.80275300000001,781-585-8492,15370.039999999986,119
22f35ea9-04e3-3ea7-92e3-c6bfd6530d81,PCP10403,85 WALSH ST,RANDOLPH,MA,02368-2648,42.178993,-71.052654,401-261-5131,1808.2400000000005,14
db9155f4-a60a-3004-bd69-4e43262268de,PCP10564,20 HOPE AVE,WALTHAM,MA,02453-2717,42.388921,-71.24226800000001,781-891-1409,6070.519999999996,47
ce9c2dda-23ac-35e3-9051-a71a04bfeb5a,PCP11113,465 NASHUA RD,DRACUT,MA,01826-2907,42.679722999999996,-71.30068,617-549-9711,7103.799999999995,55
438e9d44-1f8f-3c7f-807c-754e714c4e29,PCP11164,441 WASHINGTON AVE,CHELSEA,MA,02150-3679,42.396824,-71.031348,617-889-5528,11236.919999999991,87
558f612b-6ec9-3c8b-9476-9934b38cb3cb,PCP11662,127 MOUNT AUBURN ST,CAMBRIDGE,MA,02138-5732,42.376043,-71.11868,617-491-7391,3874.7999999999984,30
a856a319-f212-34ed-a1e1-d94fd73e0c93,PCP11793,1105 LAKEVIEW AVE,DRACUT,MA,01826-4745,42.679722999999996,-71.30068,978-957-5665,8137.079999999994,63
e65041f8-b863-3ae8-9b04-b0897c12206a,PCP11906,1318 BEACON ST,BROOKLINE,MA,02446-3793,42.323853,-71.142003,617-739-1619,5812.199999999996,45
4d4f0156-9110-3edd-aa94-53f4d58fce4a,PCP11928,55 PUTNEY RD,LEVERETT,MA,01054-9770,42.468897999999996,-72.48457900000001,413-348-6257,1937.4000000000005,15
daa4c408-5fc5-32a8-881e-12181e8b8598,PCP12132,11 PROSPECT ST,SHERBORN,MA,01770-1302,42.231947,-71.372963,508-545-1843,17694.919999999984,137
cf7921f8-ca7e-3ce2-84af-aa5f4a7ae372,PCP12358,76 BEDFORD ST,LEXINGTON,MA,02421-4646,42.445221999999994,-71.23001500000001,781-799-4526,3099.8399999999992,24
7bc32bfa-af8c-334a-845c-71db9f063565,PCP12359,1538 TURNPIKE ST,NORTH ANDOVER,MA,01845-6207,42.673909,-71.091334,978-975-2107,6845.479999999995,54
ccafb5f7-0a90-3c10-9803-d2e8798178a4,PCP12382,71 ADAMS ST,MILTON,MA,02187,42.241557,-71.082432,617-686-9378,2712.3599999999997,21
763a3f59-a40f-3070-9ebf-a08366f552f6,PCP12403,62 MAIN ST,KINGSTON,MA,02364-3071,41.987196000000004,-70.74194200000001,781-585-9300,1679.0800000000004,13
e928bdc7-e460-3b99-a906-99d8252568fd,PCP12746,1415 BEACON ST,BROOKLINE,MA,02446-4812,42.323853,-71.142003,617-731-0077,8395.399999999994,65
b6290f94-443f-35d0-8cff-3faae1f9f288,PCP12989,26 CHESTNUT ST,ANDOVER,MA,01810-3600,42.648044,-71.161751,978-475-7669,7491.279999999994,58
daac176d-a2a6-37ad-bb27-33016233139b,PCP13274,6 N MAIN ST,LEOMINSTER,MA,01453-3785,42.520876,-71.770611,978-534-6246,6716.319999999995,52
e9511c80-e1dd-3ecc-81de-1ceb0a66674e,PCP13704,268 BURNCOAT ST,WORCESTER,MA,01606-2146,42.269478,-71.807783,508-752-1433,4003.959999999998,31
09899ace-6312-3b7a-a795-71336a2d9688,PCP13723,1 ROUNDHOUSE PLZ,NORTHAMPTON,MA,01060-4401,42.327044,-72.67463000000001,413-584-2320,8782.879999999994,68
b1e66bcc-ea78-375d-9586-b9c4e9e12d32,PCP14104,214 COMMERCIAL ST,MALDEN,MA,02148-6712,42.42938,-71.058706,781-397-6830,5812.199999999996,45
6236e299-a751-3819-8b06-a17004bdbbfd,BOSTON VISION WORKS INC,335 MAIN ST,SAUGUS,MA,01906-3143,42.468432,-71.01394599999999,781-233-9570,4003.959999999998,31
0e395cae-a0c5-3794-9a77-19654a835c12,PCP14251,218 BOSTON ST,TOPSFIELD,MA,01983-2200,42.641379,-70.94344,978-887-01011,3616.4799999999987,28
4810c1d2-5d3c-3ab5-a813-ae6801ff7f67,PCP14621,927 TEMPLE ST,WHITMAN,MA,02382-1057,42.078974,-70.93939,781-718-4038,387.48,3
588e03bd-91bc-3442-be9e-66c18ba36c0c,KHOURY CHIROPRACTC  INC.,116 MECHANIC ST,BELLINGHAM,MA,02019-1678,42.076682,-71.47449,508-966-3777,8266.239999999994,64
df5946a8-c035-3b1e-aae8-efea33e618d1,PCP14797,1 HOLLIS ST,WELLESLEY,MA,02482-4672,42.305932,-71.282917,781-237-9600,5683.039999999996,44
b805291c-07be-346e-be67-c92411ccdfab,PCP14929,318 HARVARD ST,BROOKLINE,MA,02446-2912,42.323853,-71.142003,617-975-1969,6328.839999999996,49
fbd0dab0-e4f4-3d2f-9e4d-1972b21c3079,PCP15030,71 ADAMS ST,MILTON,MA,02186-3431,42.241557,-71.082432,617-429-5011,6199.679999999996,48
bd13af84-f6a1-3837-9027-f2f8b761a6a1,PCP15052,600 WORCESTER RD,FRAMINGHAM,MA,01702-5302,42.307905,-71.436196,508-626-0576,4520.599999999998,35
21761c44-ee20-3e94-a931-fe843f4fbc2e,PCP15170,451 ANDOVER ST,NORTH ANDOVER,MA,01845-5079,42.673909,-71.091334,978-640-8989,11624.39999999999,90
966874de-c438-32e7-b720-8a798a7c80e5,PCP15183,89 ABBOTTSFORD RD,BROOKLINE,MA,02446-5871,42.323853,-71.142003,617-734-5042,3874.7999999999984,30
25b58aaf-3bec-3cea-bf56-a95ba7c34def,PCP15356,180 BOLTON ST,MARLBOROUGH,MA,01752-3934,42.349616999999995,-71.547214,508-485-0736,5166.399999999997,41
8ddb2e55-4b8d-3bc1-b1a5-67bb9b1525c5,PCP15481,144 CLEVELAND AVE,BRAINTREE,MA,02184-4923,42.205416,-71.00216800000003,617-791-9469,2841.5199999999995,22
e1a712c3-d6c3-3432-ab2f-dab2fc5649f8,PCP15485,250 FORTUNE BLVD,MILFORD,MA,01757-1743,42.158691999999995,-71.521419,508-473-1042,3099.8399999999992,24
ff917dd4-ffbb-3f4c-b2df-445a7e9d29aa,PCP15541,35 BURT ST,NORTON,MA,02766-2569,41.965340999999995,-71.18178,508-285-3370,19244.839999999982,149
3347bc32-cba9-368f-9bf6-3d0f3389874c,PCP15929,67 HATHERLY RD,SCITUATE,MA,02066-3455,42.205062,-70.74297800000001,617-312-2452,4133.119999999998,32
bf6ae61c-4488-3d26-9573-0a7149886a45,PCP16143,115 WESTERN DR,LONGMEADOW,MA,01106-1045,42.047565000000006,-72.57113000000001,413-493-2585,5166.399999999997,40
4b038afe-d6cb-34db-a396-403a491d0e3d,PCP16384,1 ARNOLD CIR,CAMBRIDGE,MA,02139-2250,42.376043,-71.11868,617-438-4166,6199.679999999996,48
94895cd1-2b41-3105-bead-ea1d210c29a7,PCP16419,31 WESTBOURNE RD,NEWTON CENTRE,MA,02459-1617,42.331876,-71.208402,617-558-1851,4003.959999999998,31
d5c46c23-6639-3984-86bc-6e89450c5c4d,PCP16454,404 MAIN ST,CENTERVILLE,MA,02632-2916,41.662727,-70.357208,774-274-6383,6587.159999999995,51
c6bc7c9c-d513-3311-9168-d48f30d69405,PCP16611,49 HANCOCK ST,CAMBRIDGE,MA,02139-3188,42.376043,-71.11868,617-233-8957,5683.039999999996,44
d6155326-7127-3791-8031-7704e5d867ce,PCP16684,124 WATERTOWN ST,WATERTOWN,MA,02472-2599,42.369451,-71.177925,781-894-4890,5941.359999999996,46
b9febf34-4dfb-36af-b417-c872337deaf4,PCP17539,30 MANMAR DR,PLAINVILLE,MA,02762,42.012797,-71.336578,508-695-3885,2066.5600000000004,16
efc4bee9-9222-3540-8825-84d5a0c4bc21,PCP17556,45 BROAD ST,WESTFIELD,MA,01085-2956,42.138838,-72.755911,413-568-9858,6328.839999999996,49
63165d5e-ceed-3902-a7f6-2b9a1dfb52de,PCP17584,465 NASHUA RD,DRACUT,MA,01826-2998,42.679722999999996,-71.30068,978-662-9904,4133.119999999998,32
261b14f5-39d7-37eb-a8b7-606014d8eff3,PCP17774,493 ESSEX ST,LAWRENCE,MA,01840-1241,42.700272999999996,-71.161357,978-686-7111,3745.6399999999985,29
bee3973f-125a-3713-807e-8e9c0f9e304e,PCP17791,103 ELM ST,MILLBURY,MA,01527-2601,42.192246000000004,-71.777649,508-865-9951,7362.119999999994,57
efaf2e2d-bce0-3d89-8409-899aa9f459a7,PCP17804,22 MILL ST,ARLINGTON,MA,02476-4738,42.418721999999995,-71.163912,617-515-8984,4649.7599999999975,36
74036847-72aa-3eef-81ad-d672e3ff5cba,PCP18088,185 MAIN ST,SPENCER,MA,01562-1755,42.247211,-71.991867,508-885-0788,4133.119999999998,32
8c220acb-0963-3c25-9402-c96a4a0aa598,PCP18093,7 PARKER RD,OSTERVILLE,MA,02655-2044,41.662727,-70.357208,508-420-8859,3745.6399999999985,29
76c097a5-448a-33f9-ad85-580f4d3dc2f0,PCP18126,29 E ST,HINGHAM,MA,02043-1903,42.224319,-70.880673,781-740-1059,4003.959999999998,31
f1ac94ab-bc9f-3a39-8b73-0dafc81b0ce5,PCP18294,19 CLEMENT ST,SHELBURNE FALLS,MA,01370-1022,42.609509,-72.74698000000001,413-625-2828,8007.919999999994,62
5aa98f16-c832-3ec5-b52a-2691978cc235,PCP18474,80 BROADWAY,REVERE,MA,02151-5305,42.421005,-70.99036,781-289-7929,8007.919999999994,62
1d3ab65f-d66e-3c6b-a58b-55f9acfedce5,PCP18923,542 B TURNPIKE ST,NORTH ANDOVER,MA,01845-5812,42.673909,-71.091334,978-685-6641,3616.4799999999987,28
5db1dbc3-3a43-38ed-932a-349815e7fa45,PCP18958,440 S ST,PITTSFIELD,MA,01201-8217,42.451840000000004,-73.260685,413-443-0885,5553.8799999999965,43
46eaf6f1-29f0-394b-a6aa-6d6f9219a973,PCP18988,10 PHOENIX ROW,HAVERHILL,MA,01832-5734,42.782945,-71.087436,978-372-0575,8137.079999999994,63
5f9ea345-9288-3aac-ac0b-5020f5fdb49e,PCP19222,50 CIRCULAR AVE,LEE,MA,01238-1202,42.303174,-73.233924,413-243-0723,6199.679999999996,48
5f0ddfb1-6ba0-30ed-ae87-481cfbbf5d01,PCP19483,8 ROBERTA DR,S DARTMOUTH,MA,02748-2020,41.661303,-70.937913,508-992-9376,5037.239999999997,39
4760f33a-83c4-3727-84a7-a8a6080125cb,PCP19561,68 MARKET ST,LYNN,MA,01901-1115,42.474862,-70.96218499999999,617-947-7456,4003.959999999998,31
86f868e9-3325-3019-98d9-34ca2dc11f20,TANZMAN MASELLI AND ASSOCIATES PC,151 ASHLAND ST,N ADAMS,MA,01247-4522,42.675549,-73.11810799999998,413-662-2020,4391.439999999998,34
1607e74e-eb20-3211-9558-1005aac29c94,PCP19836,1 PLEASANT ST,MAYNARD,MA,01754-1360,42.425955,-71.45625600000001,978-897-8276,4003.959999999998,31
e9d22f2d-5203-3a66-bd42-2ce7875f6edc,PCP19870,11 CHESTNUT ST,ANDOVER,MA,01810-3724,42.648044,-71.161751,978-684-5096,7491.279999999994,58
1f2b3666-5e34-3e83-8a47-076f8f9c161e,PCP20187,1234 BROADWAY,SOMERVILLE,MA,02144-1703,42.390445,-71.101033,857-998-0747,4262.279999999998,33
70a52bb0-e224-3bdb-9d91-6587f0667580,PCP20265,59 N MAIN ST,LEOMINSTER,MA,01453-5507,42.520876,-71.770611,978-537-6324,4133.119999999998,32
d12715c7-baeb-3470-971f-8bdec22d91b3,PCP20277,25 B HAWTHORNE VLG,FRANKLIN,MA,02038-2697,42.084858,-71.41057099999998,508-533-7502,4649.7599999999975,36
46084d3f-e6a2-37bc-b830-9b15674f7cae,PCP20314,117 MAIN ST,SPENCER,MA,01562-2125,42.247211,-71.991867,508-885-2500,3358.159999999999,26
10c1ad69-8110-35fd-a14c-60b57aa09cb1,PCP20360,27 BIRCHWOOD LN,LINCOLN,MA,01773-4907,42.425506,-71.310812,978-771-4406,4262.279999999998,33
4cd7de25-382b-30f8-94d5-e353e3eca86a,PCP20489,2 WHITING RD,DOVER,MA,02030-2451,42.234159999999996,-71.291167,508-785-1770,4908.079999999997,38
371e53b1-b1f9-3ffd-91de-b16fa5cd8439,PCP20573,1140 THORNDIKE ST,PALMER,MA,01069-1509,42.187794,-72.30846899999997,413-283-2946,9041.199999999993,70
fc366e37-d120-33a3-9d13-a2871951a9b9,PCP20826,765 NEWMAN AVE,SEEKONK,MA,02771-4421,41.839797999999995,-71.31804699999999,508-761-6334,6199.679999999996,48
a9dc0a17-2b47-346a-ad1b-10bebf78ba76,PCP20995,71 ADAMS ST,MILTON,MA,02186-3431,42.241557,-71.082432,617-698-22521,3099.8399999999992,24
9e5a6190-4711-3b44-8ac8-1af18f1ed768,PCP21087,433 W ST,AMHERST,MA,01002-2936,42.363534,-72.50729100000001,413-230-3686,4391.439999999998,34
91da9782-027f-3fe3-8413-e37ed7a6734d,PCP21107,415 BOSTON TPKE,SHREWSBURY,MA,01545-3446,42.284766999999995,-71.714228,508-320-0232,7878.759999999994,61
144959f4-ae60-319a-9264-43ac37d75249,PCP21213,665 BEACON ST,BOSTON,MA,02215-3202,42.338551,-71.018253,781-938-5555,4133.119999999998,32
5b0407ae-bb50-3416-9b19-3aa91666924e,PCP21224,275 TURNPIKE ST,CANTON,MA,02021-2357,42.175737,-71.125385,781-724-5439,3228.999999999999,25
63f5900e-4fce-3ddc-97f4-1cdfb91b8a81,FAMILY SERVICES OF THE MERRIMACK VALLEY  INC.,430 N CANAL ST,LAWRENCE,MA,01840-1246,42.700272999999996,-71.161357,978-327-6618,6974.639999999995,54
cd96a437-968d-3e65-9f0e-89b975450c15,PCP22031,1563 FALL RIVER AVE,SEEKONK,MA,02771-3736,41.839797999999995,-71.31804699999999,508-336-2663,2841.5199999999995,23
5519120c-af24-3f39-bb6c-b7fc0b50c8e6,PCP22063,630 S MAIN ST,LANESBOROUGH,MA,01237-9726,42.535857,-73.24113299999999,413-236-0995,12141.03999999999,94
d9dd997b-4c99-3892-a417-d3f6032a2b79,PCP23208,1155 PURCHASE ST,NEW BEDFORD,MA,02740-6634,41.661303000000004,-70.937913,508-997-2900,4391.439999999998,34
c0388410-92ac-3f24-9bf7-8015960436e3,WILLIAM H LANGFIELD JR OD PC,598 COUNTY ST,SOMERSET,MA,02726-4204,41.738479,-71.165065,508-676-8167,8266.239999999994,64
14bf7ede-f819-37af-8fd6-6311f46afc65,PCP23255,1330 BEACON ST,BROOKLINE,MA,02446-3200,42.323853,-71.142003,781-799-4812,5424.719999999997,42
7390dcb5-3132-3125-a63e-c9646de2c67a,PCP23275,28 HIGH ST,GREENFIELD,MA,01301-2973,42.614671,-72.597063,413-774-5450,6328.839999999996,49
e312fe3e-c62c-3302-884e-55ada79676c6,PCP23452,21 ELIOT ST,NATICK,MA,01760-6085,42.284822,-71.348811,508-348-5685,7362.119999999994,57
3ff0cfd1-6f60-34d8-b5a9-894cbca6c19c,PCP23496,50 N 2ND ST,NEW BEDFORD,MA,02740-6272,41.661303000000004,-70.937913,508-997-6091,6199.679999999996,49
74086554-9256-3f1f-9bfb-ef7237391d25,PCP23574,104 WHALON ST,FITCHBURG,MA,01420-7185,42.601977000000005,-71.81586999999999,978-345-5200,4133.119999999998,32
78a11f16-e161-3dfa-91fa-16af7109cea0,PCP23885,37 EDGERTON DR,NO FALMOUTH,MA,02556-2821,41.601508,-70.639317,508-563-3003,2324.88,18
864966c4-767d-3973-b6df-7dc1581d4d30,PCP24037,450 N MAIN ST,SHARON,MA,02067-1172,42.108463,-71.185182,781-588-2311,4133.119999999998,32
d14ec5f9-3e98-33c7-b7d5-e6c11b33be67,PCP24478,94 PLEASANT ST,ARLINGTON,MA,02476-6535,42.418721999999995,-71.163912,781-862-9173,3099.8399999999992,24
591ffe05-d411-3512-b7a4-68cb50cab161,PCP24532,172 MIDDLESEX AVE,WILMINGTON,MA,01887-2737,42.564646999999994,-71.164516,978-658-4432,6974.639999999995,54
2c353d81-fcdb-3686-b2ae-a38a9eca0926,PCP24561,116 MAIN ST,WESTMINSTER,MA,01473-1444,42.5546,-71.90544,978-874-0535,6328.839999999996,49
eaafa2b6-ec6c-3b3c-8474-39dd72378f39,PCP24701,76 BEDFORD ST,LEXINGTON,MA,02420-4640,42.445221999999994,-71.23001500000001,781-863-0310,9299.519999999993,72
5d2881cc-3500-3b6f-8e16-10d52dd2ed35,PCP25039,3 ESSEX GREEN DR,PEABODY,MA,01960-2913,42.534279,-70.969782,978-532-54441,14853.399999999987,115
0a22110e-22c1-3679-aff0-f8a849ca8f5e,PCP25386,366 MASS AVE,ARLINGTON,MA,02474-6731,42.418721999999995,-71.163912,781-643-7020,9170.359999999993,71
279b2a85-ab64-3dec-90df-fbca8b479db5,PCP25692,48 CHERRY ST,WENHAM,MA,01984-1313,42.600633,-70.883303,978-473-6078,4778.919999999997,37
9d56d80f-e880-3a86-a7fb-d4511e7cf260,JOSEPH J CONWAY MD PC,6 MAIN ST,HYANNIS,MA,02601-3112,41.647227,-70.249978,508-771-7284,5424.719999999997,42
6d26aabf-75b2-3cf1-8d1c-8b93357b9edb,PCP25777,108 LITTLETON RD,WESTFORD,MA,01886-3114,42.585541,-71.44025,978-692-9541,6974.639999999995,54
a2fd054d-66b6-3722-ae65-51f6e3fe3214,PCP25901,5 WATSON RD,BELMONT,MA,02478-3900,42.395317,-71.180284,617-776-4001,4391.439999999998,34
3e4baf39-79d2-3c5f-9419-293af2720a97,PCP26086,149 BELGRADE AVE,ROSLINDALE,MA,02131-2416,42.33196,-71.020173,617-327-4698,1291.6000000000001,10
05799cad-f02d-382e-9b80-b0f833d6af4d,PCP26276,5 WALLACE ST,METHUEN,MA,01844-6425,42.742751,-71.178588,617-318-8557,3616.4799999999987,28
7fb56fd2-71ad-336a-9204-57765bd1e5d4,PCP26624,425 N RD,HAMPDEN,MA,01036-9535,42.071188,-72.41771800000001,413-566-8503,7878.759999999994,61
504c29d0-6f98-3282-a3fe-962df55f7808,PCP26696,505 NASHUA RD,DRACUT,MA,01826-1929,42.679722999999996,-71.30068,978-674-0271,7620.439999999994,59
e3b6c45e-c3d3-3382-b40a-efcfe7383eb4,PCP26794,234 LITTLETON RD,WESTFORD,MA,01886-3530,42.585541,-71.44025,978-393-1770,2970.6799999999994,23
dbaac6b3-04b6-3d4b-a020-b5e0f29d6729,PCP27084,101 ADAMS ST,QUINCY,MA,02169-2022,42.261006,-71.008988,617-291-1436,2583.2,20
97a3a34c-2a64-3071-8547-6a0b7eae7f07,PCP27154,300 NEWBURYPORT TPKE,ROWLEY,MA,01969-2012,42.721495000000004,-70.886637,978-257-7890,4391.439999999998,34
1055cb51-3d14-3737-b4a8-0203cd752ac9,PCP27216,20 LONG MEADOW RD,LINCOLN,MA,01773-4810,42.425506,-71.310812,781-259-3434,3616.4799999999987,28
aaf9b793-71b4-346d-baea-62b744d94494,PCP27271,537 ROUTE 28,HARWICH PORT,MA,02646-1894,41.670154,-70.06519399999999,508-430-8672,8137.079999999994,63
1a8ec92e-9456-3ac0-92b7-9f75ff3611a2,SLEEP MEDICINE SERVICES OF WESTERN MASSACHUSETTS LLC,217 RUSSELL ST,HADLEY,MA,01035-9521,42.356491,-72.568632,413-253-2797,4133.119999999998,32
2589bf67-42e5-3f1c-acf3-87a04855cf72,PCP27443,50 SOLON ST,NEWTON,MA,02461-1827,42.331876,-71.208402,617-964-68222,2583.2,20
83a737d5-7472-3f98-816b-8bb9de6ab3a0,PCP27668,5 ESSEX GREEN DR,PEABODY,MA,01960-2914,42.534279,-70.969782,978-531-55171,3099.8399999999992,24
e06bd055-ade6-3128-a009-bfc61d1bc3bd,PCP27822,78 MIDDLE ST,FAIRHAVEN,MA,02719-3050,41.633619,-70.871306,508-992-2194,4133.119999999998,32
b45eb86b-d5ff-37a7-8363-b07c5b720d28,PCP28050,6 COURTHOUSE LN,CHELMSFORD,MA,01824-1726,42.597055,-71.3697,978-452-37112,7491.279999999994,58
f09cf501-9c20-3a90-895e-d08fe18aa79a,PCP28216,140 WOOD RD,BRAINTREE,MA,02184-2512,42.205416,-71.00216800000003,781-534-8808,3616.4799999999987,28
f09fba12-a185-3d6e-8fa7-eeb7e037ed0c,PCP28483,175 DERBY,HINGHAM,MA,02043-4007,42.224319,-70.880673,781-588-0850,2066.5600000000004,16
07c54b7a-99ed-3a14-a8c1-922986a51ec3,PCP28493,1040 GREAT PLAIN AVE,NEEDHAM,MA,02492-3014,42.281593,-71.242414,781-449-0929,2454.04,19
af3c8657-15b8-3fee-b656-2ea1f1cb61ef,PCP28562,112 S GREAT RD,LINCOLN,MA,01773-4700,42.425506,-71.310812,781-259-8122,10332.799999999992,80
66ebf1f2-1b43-3770-9572-c3702a95facf,PCP28779,113 BELMONT ST,BELMONT,MA,02478-3603,42.395317,-71.180284,617-484-1042,2195.7200000000003,17
b7f0f20c-c4b1-3f26-a343-0344e35e9d37,PCP28833,22 HILLIARD ST,CAMBRIDGE,MA,02138-4972,42.376043,-71.11868,617-497-9027,1291.6000000000001,10
5d7df2e4-97e4-366e-8e63-623dd1555e97,PCP28881,91 GLEN ST,NATICK,MA,01760-5647,42.284822,-71.348811,508-652-0215,2195.7200000000003,17
add4291d-91f0-33a3-9fdf-5f32efbe824d,PCP28960,84 COTTAGE ST,SHARON,MA,02067-2133,42.108463,-71.185182,781-784-1739,4003.959999999998,31
c6dba4dc-7ad7-34e6-a863-53eea679cf80,PCP29117,18 LYMAN ST,WESTBOROUGH,MA,01581-5422,42.268426,-71.613309,508-836-9595,3874.7999999999984,30
d9f1cef1-9753-3fd4-b31e-2fb0baf0b0a1,PCP29149,813 WILLIAMS ST,LONGMEADOW,MA,01106-2052,42.047565000000006,-72.57113000000001,413-567-2340,6070.519999999996,47
74f30d9f-4d98-39ff-a337-9c4c687806a5,PCP29415,1445 MAIN ST,TEWKSBURY,MA,01876-2082,42.612088,-71.227845,978-851-4251,4003.959999999998,31
b668eb21-0313-3066-8118-6ce4b59e3e90,PCP29438,275 TURNPIKE ST,CANTON,MA,02021-2353,42.175737,-71.125385,781-828-2237,4520.599999999998,35
585ccce5-aa28-30b3-9494-fe92005dced3,PCP29519,40 S ST,MARBLEHEAD,MA,01945-3274,42.495629,-70.83582,,4133.119999999998,32
4ed706ff-0933-348d-9a14-6121280d9db1,PCP29620,46 SUFFIELD ST,AGAWAM,MA,01001-1753,42.064731,-72.653477,413-786-3701,5683.039999999996,44
bd0f9656-73f9-3b9d-831d-47c149402475,PCP29801,545 CONCORD AVE,CAMBRIDGE,MA,02138-1125,42.376043,-71.11868,617-448-6237,4133.119999999998,32
c13d88e5-c806-368a-8787-f623d307b61e,PCP29839,223 CHIEF JUSTICE CUSHING HWY 207,COHASSET,MA,02025-1391,42.262428,-70.79888299999999,617-759-2744,258.32,2
4e383e1d-1060-3747-a4f0-d639980ff360,PCP29892,131 HARVARD ST,BROOKLINE,MA,02446-6429,42.323853,-71.142003,617-934-4744,7749.599999999994,60
4bf8acfd-fec0-350f-ab95-064ffeb59e83,PCP30053,1180 BEACON ST,BROOKLINE,MA,02446-3806,42.323853,-71.142003,617-731-4837,7362.119999999994,57
5cb1518e-d7c0-33be-8c98-34b50e09d8a0,PCP30143,1330 BEACON ST,BROOKLINE,MA,02446-3200,42.323853,-71.142003,617-734-7348,6974.639999999995,54
2419d046-8d43-3d19-a402-16ace78ac726,PCP30178,72 ROUTE 28,WEST HARWICH,MA,02671-1112,41.693632,-70.105298,508-430-0693,4520.599999999998,35
ff76282f-7968-39c7-82f9-2d86c93990a6,PCP30512,10 RICHARDS AVE,PAXTON,MA,01612-1120,42.311693,-71.940282,508-757-0376,4649.7599999999975,36
3aa3a744-7d82-38fc-a8b8-87a4f1ab78de,PCP30550,1 PROSPECTOR RD,BILLERICA,MA,01821-3046,42.559673,-71.260947,978-667-8977,8782.879999999994,68
00c76a84-257b-3728-b782-4b2526a361b3,PCP30634,24 CARROLL DR,FOXBOROUGH,MA,02035-1559,42.061338,-71.245802,508-315-9021,5166.399999999997,40
07259647-96a4-3902-841c-3f5b372a474e,PCP30805,173 MOUNT AUBURN ST,WATERTOWN,MA,02472-4005,42.369451,-71.177925,617-924-0303,4262.279999999998,33
483d17d4-3ddb-348d-af22-84db8a6b8ae4,PCP31069,923 ROUTE 6A O,YARMOUTH PORT,MA,02675-2159,41.706920000000004,-70.221117,774-994-8328,3745.6399999999985,29
1d0379c3-b044-3dbd-8ba6-62277dc6d41e,PCP31391,115 MILL ST,BELMONT,MA,02478-1064,42.395317,-71.180284,617-855-4427,1033.28,8
bb6458f6-0c90-347b-8264-0b0cdf399c46,PCP31411,266 CABOT ST,BEVERLY,MA,01915-3368,42.556659,-70.84496,978-887-2977,4262.279999999998,33
4f66249a-0fdc-32f9-a0e3-7607f283b7e0,PCP31539,599 CANAL ST,LAWRENCE,MA,01840-1244,42.700272999999996,-71.161357,978-687-6488,7491.279999999994,58
0517fca3-9416-3b31-a5b0-4921fe5bf34b,PCP31575,2 CTR ST,GROVELAND,MA,01834-1001,42.7539,-71.015935,978-914-7733,14724.239999999987,115
7084b460-d99c-3d71-81dc-09913a4624c9,PCP31586,12 BEACONSFIELD RD,BROOKLINE,MA,02445-3305,42.323853,-71.142003,617-566-6426,9170.359999999993,71
92fb5daf-0cb4-3126-9715-9d0b8a8e5973,PCP32012,1419 BEACON ST,BROOKLINE,MA,02446-4808,42.323853,-71.142003,617-903-8684,10203.639999999992,79
c8305cda-e15b-36aa-9675-15c2153c4c6c,PCP32141,92 HIGH ST,MEDFORD,MA,02155-3850,42.423844,-71.10923100000001,781-393-88895,3616.4799999999987,28
b2671c0f-9623-3d36-b42c-3cb5f5dea42f,PCP32258,4 MILLBROOK DR,WILBRAHAM,MA,01095-2706,42.126883,-72.430952,413-596-9096,8137.079999999994,63
77338540-3195-318a-a469-84b640b1327a,PCP32415,1280 MASSACHUSETTS AVE,CAMBRIDGE,MA,02138-3827,42.376043,-71.11868,617-240-6713,4003.959999999998,31
966910ab-c114-3b9e-83e1-1a8f0c583cf7,PCP32423,303 WORCESTER ST,WELLESLEY,MA,02481-5339,42.305932,-71.282917,781-239-1182,2066.5600000000004,16
8fd412d6-410b-3d18-8846-cce73ab81e1c,PCP32478,35 TURKEY HILL RD,BELCHERTOWN,MA,01007-9032,42.27901,-72.400468,413-668-5707,3874.7999999999984,30
b1516ff8-952b-3f90-a485-e43e29cbf469,PCP33041,14 MAIN ST,SOUTHBORO,MA,01772-1614,42.272062,-71.522795,508-787-9713,21698.87999999998,168
e876a3ad-58b1-3a77-83fa-dba55f82c01d,PCP33049,34 CHURCH ST,MATTAPOISETT,MA,02739-2626,41.661363,-70.812024,508-998-1115,9170.359999999993,71
23ae9af5-8904-3b84-9ce1-61b0c59646c2,PCP33126,3193 CRANBERRY HWY,E WAREHAM,MA,02538-4707,41.793699,-70.638745,508-759-3843,4778.919999999997,37
27f37f20-5919-3d8e-b078-a54519775187,PCP33176,171 DWIGHT RD,LONGMEADOW,MA,01106-1700,42.047565000000006,-72.57113000000001,413-754-4200,3874.7999999999984,30
865f3724-67b6-33c1-bd8a-e2e8a1b656e1,PCP33227,1 SALEM GRN,SALEM,MA,01970-3787,42.499248,-70.898204,978-744-8442,4262.279999999998,33
072d1907-094b-312e-881a-a2da010a0b78,PCP33309,1101 BEACON ST,BROOKLINE,MA,02446-5587,42.323853,-71.142003,617-734-4149,6587.159999999995,51
4b36a80b-43e5-308a-9d3d-f61900863b58,PCP33587,1330 BEACON ST,BROOKLINE,MA,02446-3202,42.323853,-71.142003,617-970-3275,4003.959999999998,31
0b94abe6-7fb9-300f-9a0a-3d163a81fa1d,PCP33905,184 PLEASANT VALLEY ST,METHUEN,MA,01844-5817,42.742751,-71.178588,978-891-2261,10461.959999999992,81
bcd693ad-a126-38ea-997f-e60cc7c95518,PCP34137,4 STONY BROOK RD,ARLINGTON,MA,02476-8019,42.418721999999995,-71.163912,617-818-2159,2324.88,18
123b881f-f089-3c1b-bcec-8b7037d0f377,PCP34180,70 WASHINGTON ST,SALEM,MA,01970-3575,42.499248,-70.898204,978-745-3130,9299.519999999993,72
2fd11361-77b2-3054-92c9-8272d200f174,PCP34696,681 FALMOUTH RD,MASHPEE,MA,02649-6310,41.617622999999995,-70.492713,508-477-1802,4262.279999999998,33
bec62824-70a4-35de-a763-ec7f1f6df992,PCP34947,283 MAIN ST,KINGSTON,MA,02364-1910,41.987196000000004,-70.74194200000001,781-585-0585,7103.799999999995,55
404561f7-7d54-3521-84db-bd836275fa9f,PCP34967,452 PLEASANT ST,MALDEN,MA,02148-8117,42.42938,-71.058706,781-322-3224,3616.4799999999987,28
0d6269d7-d51a-3bf5-ba28-ad4090e2a88f,ORTHOPEDIC TRAUMA P.C.,100 HIGHLAND ST,MILTON,MA,02186-3874,42.241557,-71.082432,617-696-2300,9299.519999999993,72
d3244678-aa8c-3f30-9252-3c7fe4b41a29,PCP35105,65 FOREST ST,MARSHFIELD,MA,02050-2845,42.115139,-70.71033100000001,781-834-7900,6974.639999999995,54
78e33fa6-7b7b-3e06-a0ad-1287b3e05a53,PCP35508,27 NORMAC RD,WOBURN,MA,01801-2012,42.488769,-71.154438,781-460-0939,4003.959999999998,31
60bad74d-0961-3cfc-8b76-812a4c09ad06,PCP35571,1105 MASSACHUSETTS AVE,CAMBRIDGE,MA,02138-5224,42.376043,-71.11868,617-491-6868,3874.7999999999984,30
8803abc5-0a80-387a-8940-c55df4af1696,COMMUNITY CHIROPRACTIC OF GROTON INC.,300 MAIN ST,GROTON,MA,01450-1379,42.61176,-71.565269,978-448-9355,2195.7200000000003,17
ebeca37d-92d4-3e27-931a-76d811fe0e64,PERRAULT CHIROPRACTIC OFFICES  INC,76 WOODLAND ST,METHUEN,MA,01844-4239,42.742751,-71.178588,978-686-7791,7749.599999999994,60
1bb7b497-035a-3900-b573-c43417841279,NEPHROLOGY ASSSOCIATES OF THE MERRIMACK VALLEY PC,600 CLARK RD,TEWKSBURY,MA,01876-1699,42.612088,-71.227845,978-432-1811,8912.039999999994,69
6e3af015-b415-3e29-a9b6-42206feaa2c8,MELROSE FAMILY CHIROPRACTIC AND SPORTS INJURY CENTRE  INC,653 MAIN ST,MELROSE,MA,02176-3101,42.455723,-71.05901899999999,781-665-1497,3616.4799999999987,28
ae4a7e33-3d01-3494-9465-28d1f847ebd3,PCP36546,272 CHAUNCY ST,MANSFIELD,MA,02048-1257,42.017302,-71.21641,508-339-3338,4262.279999999998,33
91161180-2889-37db-9808-35f1c6f2a5f9,PCP36686,17 BREWSTER ST,PROVINCETOWN,MA,02657-1603,42.056913,-70.190488,860-450-9789,10591.119999999992,82
122f0348-0144-39ca-a07c-e753c7a6dba2,PCP37108,1563 FALL RIVER AVE,SEEKONK,MA,02771-3736,41.839797999999995,-71.31804699999999,508-336-6680,3228.999999999999,25
502dd65a-e826-3bca-89bb-448b81ddbc15,PCP37168,39 PLYMOUTH ST,HOLBROOK,MA,02343-1510,42.140346,-70.997861,781-767-4207,8912.039999999994,69
4471b385-a75d-35a1-838a-30a0909de267,PCP37644,136 GARDNER ST,HAMILTON,MA,01936,42.626222999999996,-70.85723,978-969-3744,7620.439999999994,59
e1152059-6932-3ce8-a8e5-7d6fd5d86bd2,PCP38895,850 SPRINGFIELD ST,FEEDING HILLS,MA,01030-2152,42.064731,-72.653477,413-733-8277,5166.399999999997,40
d3e7d839-187e-3289-8425-ac28a250a9b1,PCP38910,118 MYRTLE ST,MELROSE,MA,02176-3118,42.455723,-71.05901899999999,781-662-2404,2712.3599999999997,21
8f8511a3-705e-341a-b7b8-b536f9fb376f,PCP39336,955 MAIN ST,WINCHESTER,MA,01890-4303,42.452752000000004,-71.144319,781-729-3008,1162.44,9
36ed10a2-6bfb-32fb-8426-eba5689a5f28,PCP39494,112 MCGRATH HWY,QUINCY,MA,02169-4607,42.261006,-71.008988,617-472-4220,2841.5199999999995,22
db6c9e2a-949f-3ccb-87fd-a2eeb0bdf5f1,PCP40864,87 WASHINGTON ST,BOXFORD,MA,01921-1240,42.683108000000004,-71.01833,617-893-8807,6716.319999999995,52
42c76589-92ec-356a-8599-89397f00f6fb,PCP41907,123 UNION ST,EASTHAMPTON,MA,01027-4100,42.265435,-72.670813,413-222-6152,5295.559999999997,41
5f3b6a8a-99a4-3564-bc7f-186b79d040db,TOTAL HEALTH CARE  INC.,2 REEDSDALE RD,MILTON,MA,02186-3324,42.241557,-71.082432,617-698-0715,8007.919999999994,63
db6e0cea-70b9-3cab-b8fe-1bd1b4b649c3,PCP42340,69 MALDEN ST,REVERE,MA,02151-2234,42.421005,-70.99036,781-284-3200,7232.959999999995,56
bfc315bf-0b95-3a8d-b1b0-94ffdf55c58e,DERMATOLOGY SERVICES INC,145 FAUNCE CORNER MALL RD,NORTH DARTMOUTH,MA,02747-6216,41.646686,-70.999158,508-993-7601,3745.6399999999985,29
7ed975bf-c050-3f59-bf17-a662a2194429,UROLOGY ASSOCIATES OF CAPE COD  P.C.,110 MAIN ST,HYANNIS,MA,02601-3145,41.647227,-70.249978,508-771-9550,6974.639999999995,55
bf5f5606-a2e5-3c09-b265-c780c6f9411f,BURLINGTON ORAL AND FACIAL SURGERY CENTER LLC,77 S BEDFORD ST,BURLINGTON,MA,01803-5154,42.503227,-71.201713,781-272-0800,5166.399999999997,40
60a19a2c-1978-3ae7-83d7-2ba64cd57789,PCP42968,1 FATHER DEVALLES BLVD,FALL RIVER,MA,02723-1511,41.725351,-71.094162,774-294-5055,8524.559999999994,66
68aef277-b7a6-301c-b1cb-8c143ad93f94,PCP43258,30 CONWELL ST,PROVINCETOWN,MA,02657-1548,42.056913,-70.190488,617-306-4633,3745.6399999999985,29
52128369-a1f9-31e7-91dd-3072d102d792,PCP43356,191 CENTRAL ST,LOWELL,MA,01852-1923,42.63898,-71.321141,978-441-0600,3874.7999999999984,30
794b4d6d-298f-3220-808e-e56a79aa6b41,ESSEX SURGICAL ASSOCIATES  PC,100 CUMMINGS CTR,BEVERLY,MA,01915-6115,42.556659,-70.84496,978-922-9226,4520.599999999998,35
737ae7be-959b-3c7f-b998-de3c90996c38,PCP43589,103 GARLAND ST,EVERETT,MA,02149-5066,42.405938,-71.054649,617-389-6270,8912.039999999994,69
2269bc9e-cade-3aaa-a2e5-fbd322cd2ad0,PCP43736,983 BENNINGTON ST,EAST BOSTON,MA,02128-1134,42.375541,-70.970646,617-567-6666,5037.239999999997,39
db7c547c-eef2-3c72-a07c-56aaa1037beb,PCP43758,1371 BEACON ST,BROOKLINE,MA,02446-4905,42.323853,-71.142003,617-905-7103,4133.119999999998,32
026ac617-d544-3fa1-bdb8-7edfdf503b1a,LABYRINTH PSYCHOLOGICAL SERVICES  P.C.,800 MAIN ST,HOLDEN,MA,01520-1838,42.355801,-71.862574,508-797-7110,5037.239999999997,39
37a78ec3-505f-361f-b6fa-aaafed77cd01,PCP43815,14 LOON HILL RD,DRACUT,MA,01826-4067,42.679722999999996,-71.30068,978-934-94442,3616.4799999999987,28
f60d122d-af1c-3d1c-a013-f84d8a8679a8,PCP44430,238 WAREHAM RD,MARION,MA,02738-1166,41.706839,-70.75095999999999,774-274-0768,7491.279999999994,58
58f5b392-6bfd-3c4a-bfd6-061e7cf396b2,PCP44672,6 WESTRIDGE RD,HUDSON,MA,01749-2863,42.389071,-71.545864,978-568-0025,3099.8399999999992,24
cd488a71-266c-3967-9bfd-7fffc77b5dc7,PCP46475,28 GREEN ST,NEWBURY,MA,01951-1721,42.770406,-70.872417,978-499-7622,1162.44,9
a79311e5-97bc-3165-ac58-2542676c16ef,LIVE FREE PHYSICAL THERAPY  INC.,493 MAIN ST,GROTON,MA,01450-4254,42.61176,-71.565269,978-449-9772,5812.199999999996,45
28f04c66-b641-32bc-b5bb-44aa61cfb9eb,HEALTH AND SPORTS REHAB  INC.,402 A BLUE HILL AVE,DORCHESTER,MA,02121-4315,42.33196,-71.020173,617-541-8825,5941.359999999996,46
c9c9bbf0-c1c0-30fe-94d3-a908a24ebb48,PCP46837,61 MAIN ST,BLACKSTONE,MA,01504-2215,42.039991,-71.53240600000001,508-752-4709,4262.279999999998,33
1ec97bae-1ed1-305b-a7ad-076d7b1cf83c,CONNECTICUT RIVER INTERNISTS. LLP,8 BURNHAM ST,TURNERS FALLS,MA,01376-1816,42.597445,-72.555278,413-772-2516,6328.839999999996,49
f341b9d9-cd82-3510-b4f2-06d2f46d3455,COMPREHENSIVE PHYSICAL THERAPY  PC,23 WARE ST,WEST BROOKFIELD,MA,01585-3137,42.256691,-72.158169,508-867-0180,6974.639999999995,55
0ba0d119-a4c6-3561-94a5-eaccfd6f62f1,EAST SIDE COUNSELING SERVICES  LLC,1311 BEDFORD ST,FALL RIVER,MA,02723-2637,41.725351,-71.094162,508-567-1477,4391.439999999998,34
57af70ba-946b-3109-89a8-82481c300705,COMPREHENSIVE PHYSICAL THERAPY  PC,1037 MAIN ST,LEICESTER,MA,01524-1313,42.238427,-71.91234,508-892-1335,6845.479999999995,53
9d969ff6-b692-3770-b525-127b8662ee40,PCP47852,256 HULL ST,HINGHAM,MA,02043-1423,42.224319,-70.880673,781-383-0700,6199.679999999996,48
6dffe5a9-5380-3a07-98c8-5e9ba17bd7f6,CUMMINGS PHYSICAL THERAPY INC,425 REVERE ST,REVERE,MA,02151-4543,42.421005,-70.99036,781-284-7597,9557.839999999993,74
7aee1c1b-17ab-3ea8-b413-bd01bf2baeab,PCP48360,57 WINGATE ST,HAVERHILL,MA,01832-5759,42.782945,-71.087436,978-374-0055,8007.919999999994,62
d4e4e2cd-c929-3607-abd6-ba4e16d2097a,PCP48748,875 MASSACHUSETTS AVE,CAMBRIDGE,MA,02139-3071,42.376043,-71.11868,617-661-5848,9816.159999999993,76
e960a4c5-58ec-3993-8fc2-2f7f4fdcf9ce,WELLESLEY FAMILY CARE ASSOCIATES  PC,173 WORCESTER ST,WELLESLEY,MA,02481-5521,42.305932,-71.282917,781-235-7900,8137.079999999994,63
a1ef6330-7fb0-33e8-9622-01506abb1490,PCP49110,64 MACY ST,RAYNHAM,MA,02767-1328,41.930477,-71.046214,774-409-7395,2066.5600000000004,16
977d8935-61d9-3e88-9c38-17f15536d65a,PCP49360,100 HIGHLAND ST,MILTON,MA,02186-3802,42.241557,-71.082432,617-696-0302,8137.079999999994,63
a0e3f669-d53f-3554-a7d5-144f422a342b,PERFORMANCE PHYSICAL THERAPY INC,99 4TH ST,CHELSEA,MA,02150-2336,42.396824,-71.031348,617-889-2500,22990.479999999978,178
4b322499-4ab0-3811-b1a5-88d16de33995,BRIGGS CHIROPRACTIC OFFICE P C,320 CENTRAL ST,SAUGUS,MA,01906-2371,42.468432,-71.01394599999999,781-233-4122,6587.159999999995,52
7aa1bf5f-a78d-3d1b-8220-87cf6839c005,PCP49509,192 SHOEMAKER LN,AGAWAM,MA,01001-3616,42.064731,-72.653477,413-789-1369,6199.679999999996,48
de5f6395-ed2b-384a-b764-9ff5e5e6e1a7,KYLE CORBIN  DC PA,664 TAUNTON AVE,SEEKONK,MA,02771-3117,41.839797999999995,-71.31804699999999,508-336-4114,3616.4799999999987,28
81d48546-7545-3eb7-9543-0be8579e6ba1,PAGGI PHYSICAL THERAPY AND SPORTS REHABILITATION  INC,1842 BEACON ST,BROOKLINE,MA,02445-1922,42.323853,-71.142003,845-590-9450,4003.959999999998,31
c78fd2bf-1131-389d-a75a-c5d3f7b1b8ef,JOHN F YEE  MD  PC,596 BROADWAY,EVERETT,MA,02149-3743,42.405938,-71.054649,617-387-3330,6070.519999999996,47
ff511ff0-af33-3559-a3cb-50b32e893f58,PCP50569,118 UNION AVE,FRAMINGHAM,MA,01702-8208,42.307905,-71.436196,508-405-1736,10591.119999999992,82
f6f34b31-46d0-3b27-9278-9824a163b5c3,PCP50846,279 E MAIN ST,GLOUCESTER,MA,01930-4141,42.62885,-70.685875,978-282-4600,7491.279999999994,58
9ffda5c5-4aec-3f9a-a83b-185ee3fa53b3,NEWTON SQUARE CHIRO LLC,82 PARK AVE,WORCESTER,MA,01609-1742,42.269478,-71.807783,508-791-5164,5812.199999999996,45
6a3e94e6-72c3-3cbc-b828-babcf6602165,MOUNTAIN VIEW FAMILY PRACTICE  PC,570 BALDWINVILLE RD,BALDWINVILLE,MA,01436-1351,42.604845000000005,-72.078823,978-939-2133,2841.5199999999995,22
04f553c5-5858-30a6-b318-f1e07a89c8bf,PCP51535,99 WALNUT ST,SAUGUS,MA,01906-1981,42.468432,-71.01394599999999,617-791-4805,4003.959999999998,31
35a49dfd-7ce3-3ef2-bbb3-eab67a5f26c3,NEW ENGLAND ORAL SURGERY ASSOCIATES LLC,2 ANDOVER RD,BILLERICA,MA,01821-1916,42.559673,-71.260947,978-667-8600,5295.559999999997,41
d7fc64a7-cbde-3199-b63c-15b4b559e0e0,PCP52207,668 MAIN ST,WILMINGTON,MA,01887-3377,42.564646999999994,-71.164516,978-988-2225,7103.799999999995,55
703674b2-fc4a-32a4-899e-a58c00af3ffd,PSYCHIATRIC ASSOCIATES OF MALDEN  P.C.,578 MAIN ST,MALDEN,MA,02148-3900,42.42938,-71.058706,781-397-6789,8653.719999999994,67
1af85c52-a5b0-3025-9a65-132a7e5bf7e9,NASHOBA RADIOLOGY GROUP  LLC,200 GROTON RD,AYER,MA,01432-1168,42.566573,-71.575135,978-784-9560,904.1199999999999,7
4a412207-48fb-3424-9ae1-b66d5ec67913,DERMATOLOGY OF THE BERKSHIRES PC,40 MAIN ST,NORTH ADAMS,MA,01247-3460,42.675551,-73.11810899999999,413-458-0054,5295.559999999997,41
873473c4-cd4c-3387-9b50-dd3c489e6106,SAPERIA ORTHOPAEDICS AND SPORTS MEDICINE INC,72 WASHINGTON ST,TAUNTON,MA,02780-7410,41.903324,-71.094987,508-824-1824,6845.479999999995,53
901b7fc0-59cb-33fd-ae22-f781e892a679,PCP56842,350 GIFFORD ST,FALMOUTH,MA,02540-2918,41.594939000000004,-70.599243,508-922-0700,4520.599999999998,35
e3e21773-000d-36cf-bafb-deede85942f3,MELROSE SURGICAL ASSOCIATES  PC,50 ROWE ST,MELROSE,MA,02176-3231,42.455723,-71.05901899999999,781-979-6500,2712.3599999999997,21
f93e59e2-c0e4-3118-a1c2-3234c6dde120,CHARIS CENTER SOUTH  INC.,604 FOUNDRY ST,EASTON,MA,02334,42.040515,-71.109329,508-947-1901,5166.399999999997,40
204eb5af-87cd-3122-952f-191337f99b1c,PCP57271,50 MEMORIAL DR,LEOMINSTER,MA,01453-2238,42.520876,-71.770611,978-534-1534,5683.039999999996,44
36d9f9e8-5717-3628-bc57-32e2961b0da3,PCP57551,1351 MAIN ST,BROCKTON,MA,02301-7153,42.082543,-71.024638,508-586-3613,5424.719999999997,42
9b703347-87f9-352a-9dc0-8c8bb2d57012,PCP58697,40 WEBSTER PLACE,BROOKLINE,MA,02445-7988,42.323853,-71.142003,781-647-5424,2841.5199999999995,22
d797780f-5977-3fa8-acbb-1997bad927c7,PCP59195,3 WOODLAND RD,STONEHAM,MA,02180-1714,42.474208000000004,-71.097665,781-662-7177,6457.999999999995,50
94d03dd2-29ee-347c-99e2-9a62181d5b10,PCP59870,955 MAIN ST,WINCHESTER,MA,01890-4300,42.452752000000004,-71.144319,508-358-7241,1033.28,8
3819de45-a3b1-384f-8d96-395fbad93934,PCP60356,800 W CUMMINGS PARK,WOBURN,MA,01801-6355,42.488769,-71.154438,781-281-9385,5295.559999999997,41
c0110272-218d-3001-bd45-eda7fab1fde1,PCP60888,67 UNION ST,NATICK,MA,01760-7700,42.284822,-71.348811,508-395-7278,2841.5199999999995,22
cf765ed5-2de8-3583-8916-b8367f5e47ac,PCP60937,427 COLUMBIA RD,HANOVER,MA,02339-3213,42.122956,-70.85631,617-842-7505,4391.439999999998,34
4786ed54-9ddb-3063-b578-370787aef828,PCP61278,52 NOON HILL AVE,NORFOLK,MA,02056-1161,42.116244,-71.329274,508-560-4007,8782.879999999994,68
f328daa7-8d25-311b-a389-795a7bf03a47,PCP61523,37 ADDINGTON RD,BROOKLINE,MA,02445-4519,42.323853,-71.142003,617-264-8866,5166.399999999997,41
d803a2a5-9c27-38b7-b193-4fb0749819b8,PCP61582,14 NOTTINGHAM DR,NATICK,MA,01760-3340,42.284822,-71.348811,339-203-3153,4133.119999999998,32
164d13cd-556e-3703-a210-ba21be106f2d,PROFESSIONAL MEDICAL ASSOCIATES P.C.,1155 CENTRE ST,JAMAICA PLAIN,MA,02130-3432,42.33196,-71.020173,617-524-4431,3745.6399999999985,29
841c16ad-a4dd-3d41-8227-d8202c5699fa,WESTPORT CHIROPRACTIC  INC,637 STATE RD,WESTPORT,MA,02790-2819,41.579794,-71.081822,508-679-5500,3358.159999999999,26
f390073f-8d65-3e72-8ebd-fb8b465d324b,CROWN OBSTETRICS AND GYNECOLOGY PC,300 CONGRESS ST,QUINCY,MA,02169-0907,42.261006,-71.008988,617-479-6636,4262.279999999998,33
9b88de2a-cae5-38d8-be61-020f2cf13f0e,BRAVMAN LANGSTON AND ASSOCIATES ORAL AND MAXILLOFACIAL SURGERY LLC,114 WATERHOUSE RD,BOURNE,MA,02532-3867,41.717459999999996,-70.591824,508-754-4459,5553.8799999999965,44
9473c85d-4979-35a3-bf0f-58a99b1f8d23,YARMOUTH MEDICAL CENTER  LLC,23 WHITES PATH,SOUTH YARMOUTH,MA,02664-1238,41.667083,-70.200793,508-760-2054,8653.719999999994,67
adb6cd00-f5e7-3c07-93bb-f88c090c6c04,ALLERGY AND ASTHMA ASSOCIATES - SOUTH  P.C.,33 COHASSET AVE,BUZZARDS BAY,MA,02532-3270,41.75495,-70.616158,508-759-7555,5683.039999999996,44
5005bebb-60cc-361c-87d1-d96c3d6a751b,PCP63301,12 GALLAGHER DR,RANDOLPH,MA,02368-5240,42.178993,-71.052654,781-986-7558,3099.8399999999992,24
3318f35e-2b30-3a08-bc2e-94e948d8e6de,M AND W PARTNERS INC.,2007 BAY ST,TAUNTON,MA,02780-1086,41.903324,-71.094987,508-821-7731,4778.919999999997,37
825c9254-2ca4-335c-8abf-b33dc19e796c,PCP63533,6 BARTLETT RD,WINTHROP,MA,02152-2913,42.375541,-70.970646,617-846-3502,5166.399999999997,40
21ed1061-d809-3fa9-a1bd-bd0b1a108a41,BAY STATE EXCELLENT VISION,600 MAIN ST,MALDEN,MA,02148-3919,42.42938,-71.058706,781-321-6463,5037.239999999997,39
e3fcb5ff-5e0b-3bd3-a745-39d9074aa2bf,PCP63654,320 BOLTON ST,MARLBOROUGH,MA,01752-3988,42.349616999999995,-71.547214,508-460-6002,4003.959999999998,31
645cd1d6-830e-3b5a-9fc8-14d05e8a6e0e,PCP64167,2000 WASHINGTON ST,NEWTON,MA,02462-1624,42.331876,-71.208402,617-965-5830,4908.079999999997,38
f7fd8ba5-ee6e-30a5-b8cd-9da08d485b8d,PAGE ENTERPRISES INC,27 E MAIN ST,WEBSTER,MA,01570-2310,42.047075,-71.845805,508-943-8895,11107.759999999991,86
8ec3c125-a4ac-3872-9307-91817e2979e7,OPTOMEYES HEALTH PC,535 FAUNCE CORNER RD,DARTMOUTH,MA,02747-1242,41.56651,-70.958229,774-202-6888,4649.7599999999975,36
88ce3362-6546-325f-a540-1b7c93040d54,PCP64772,563 MAIN ST,BOLTON,MA,01740-1300,42.439941,-71.601879,781-843-4499,2324.88,18
9a6ddcfe-fa78-3033-92f3-bfe30afe0845,PCP65206,124 HARVARD ST,BROOKLINE,MA,02446-6439,42.323853,-71.142003,617-947-1974,5166.399999999997,40
1312039d-7a48-3783-bd3a-b908b870af50,NEW ENGLAND EAR NOSE AND THROAT LLC,2000 WASHINGTON ST,NEWTON,MA,02462-1648,42.331876,-71.208402,617-910-0368,3358.159999999999,26
086887d6-b07a-3673-9654-b0828b06f2c7,PCP65648,10 FORBES RD,BRAINTREE,MA,02184-2620,42.205416,-71.00216800000003,781-519-4756,2324.88,18
a01fd9c0-6c2c-3fc2-8ffb-4da665873f2b,PCP66408,103 CHESTNUT ST,NEW BEDFORD,MA,02740-5325,41.661303000000004,-70.937913,508-990-9909,2583.2,20
8746db9e-d3c7-3829-9802-0e6d8b92bb0f,WORCESTER PHYSICAL THERAPY SERVICES  INC.,30 GLENNIE ST,WORCESTER,MA,01605-3917,42.269478,-71.807783,508-791-8740,6587.159999999995,51
5db9c918-9e4d-38bb-a94c-2c031fcb6fb0,CRABBE CHIROPRACTIC  INC,132 S MAIN ST,ACUSHNET,MA,02743-2772,41.718216999999996,-70.901151,508-998-2800,11624.39999999999,90
e46a7b81-45ef-35e6-9778-a5d68790a02d,PCP66671,130 COLLEGE ST,SOUTH HADLEY,MA,01075-1493,42.256208,-72.58103,413-493-2563,4262.279999999998,33
0302307f-be1c-3f1c-9529-366199ca523d,DANIEL H ERVIN DO PC,22 S ST,WESTMINSTER,MA,01473-1535,42.5546,-71.90544,978-874-7368,3228.999999999999,25
04b0900a-2ae4-3360-b9a5-1b3eb2bdd8a2,PCP67456,140 N VALLEY RD,PELHAM,MA,01002-9766,42.371648,-72.412488,202-445-7271,10591.119999999992,83
c1414e2c-48df-3428-92a4-ac36114a2a45,ORTHOPEDIC AND SPORTS PHYSICAL THERAPY OF CAPE COD LLC,160 ROUTE 137,EAST HARWICH,MA,02645-1316,41.708597,-70.031856,774-237-0832,17307.439999999984,134
e779412c-08c2-3316-a0ce-2d31148b1b31,RHEUMATOLOGY AND INTERNAL MEDICINE ASSOCIATES  PC,64 C CONCORD ST,WILMINGTON,MA,01887-2179,42.564646999999994,-71.164516,978-988-9700,8653.719999999994,67
0ace4c03-6649-39df-859c-d8598c2b213f,PCP68425,919 MAIN ST,CLINTON,MA,01510-1613,42.411887,-71.690005,978-365-6044,2841.5199999999995,22
c7f7cd0d-b845-3352-97be-4170b26dadf7,PCP69454,20 HOPE AVE,WALTHAM,MA,02453-2721,42.388921,-71.24226800000001,781-893-8762,8266.239999999994,64
28add592-cd34-32b0-aa80-b4a531b61f1a,PCP69518,18 MILLISTON RD,MILLIS,MA,02054-1600,42.173103000000005,-71.36375600000001,508-376-2539,1937.4000000000005,15
cfdd8c47-ad93-3108-90d4-5acd3a787966,PCP70048,6 PLEASANT ST,MALDEN,MA,02148-5167,42.42938,-71.058706,781-910-4483,3874.7999999999984,30
c1d216b6-3673-3609-b5c2-a7ba2e69484f,PCP70208,382 N MAIN ST,EAST LONGMEADOW,MA,01028-1830,42.062378,-72.498111,413-525-8601,3358.159999999999,26
97116ca8-d7ed-34dc-9d07-a7f6f40a715c,ALL CAPE GYNECOLOGY LLC,1330 PHINNEYS LN,HYANNIS,MA,02601-1877,41.647227,-70.249978,508-775-0003,6070.519999999996,47
5fb13e00-97fc-3a7c-be52-fd19e5e96d7c,PCP70933,103 MYRON ST,WEST SPRINFIELD,MA,01089-1598,42.125451,-72.649734,508-898-8650,1679.0800000000004,13
d4dac97c-d36a-31a2-91b8-ee39bd16afba,PCP71576,100 OLD BILLERICA RD,BEDFORD,MA,01730-1267,42.499295000000004,-71.281889,781-275-8700,2583.2,20
ac6eef33-a7ca-3528-94e3-ca7358a3a586,PCP71815,259 MASSACHUSETTS AVE,ARLINGTON,MA,02474-8406,42.418721999999995,-71.163912,781-641-0272,2583.2,20
2628a43e-1c53-322f-8042-143806926c86,PCP72065,20 THOREAU RD,PLYMOUTH,MA,02360-3539,41.897892,-70.62403,508-944-8812,2066.5600000000004,16
363e8d5d-0430-3d82-b469-508677d077fa,PCP72155,278 ELM ST,SOMERVILLE,MA,02144-2919,42.390445,-71.101033,617-718-4268,5424.719999999997,43
e322df98-0326-3e19-b466-16721e6686e3,PCP72201,26 TRAPELO RD,BELMONT,MA,02478-4457,42.395317,-71.180284,617-721-8375,3745.6399999999985,29
c795bf75-0bfa-3273-9222-6aa97290359a,PCP72347,736 CAMBRIDGE ST,BRIGHTON,MA,02135-2997,42.33196,-71.020173,617-783-3995,4391.439999999998,34
30ac330b-73e1-349f-8aac-31b03d591210,ASTHMA AND ALLERGY PHYSICIANS LLC,115 WATER ST,MILFORD,MA,01757-3015,42.158691999999995,-71.521419,508-634-8700,4391.439999999998,34
8d16c127-4db4-3c2f-87f4-8a83ea952047,CHARIS CENTER SOUTH  INC.,279 RESERVOIR ST,HOLDEN,MA,01520-1205,42.355801,-71.862574,508-829-0330,1937.4000000000005,15
221170d0-1e4a-3843-8851-9e22fa209be2,PCP73076,425 ROUTE 6A,E SANDWICH,MA,02537-1470,41.734214,-70.430683,508-888-1130,3616.4799999999987,28
b7014371-9dc7-35d8-a0fc-18c34bb21932,CLEAR VISION EYE CENTER INC,3 WOODLAND RD,STONEHAM,MA,02180-1710,42.474208000000004,-71.097665,781-979-0960,1549.9200000000003,12
529d130f-9c51-3461-ac43-46c481038762,MICROSURGICAL EYE CONSULTANTS,31 CENTENNIAL DR,PEABODY,MA,01960-7901,42.534279,-70.969782,978-531-4400,3358.159999999999,26
f2093e37-54f4-3205-9417-095f5764c7b0,NEW PASSAGES PC,573 MAIN ST,WINCHESTER,MA,01890-2900,42.452752000000004,-71.144319,781-729-4010,2324.88,18
4086dff6-39dd-3878-ae27-9867eaea4788,ESSEX ORTHOPAEDICS AND OPTIMA SPORT MEDICINE PLLC,70 E ST,METHUEN,MA,01844-4597,42.742751,-71.178588,978-687-0156,3228.999999999999,25
590b2d45-0b5a-3808-9c23-df02f87e81ae,NE NEPHROLOGY HOME CARE ASSOCIATES,2110 DORCHESTER AVE,DORCHESTER,MA,02124-5628,42.33196,-71.020173,617-739-2100,3228.999999999999,25
8b24ff48-d0f2-3b84-9f73-4dc90cd2ade1,RADIATION THERAPY OF WINCHESTER  LLC,620 WASHINGTON ST,WINCHESTER,MA,01890-1328,42.452752000000004,-71.144319,781-756-8300,1937.4000000000005,15
47daa3df-3877-3c51-916b-d6650d378c50,PCP74713,411 ROUTE 6A,YARMOUTH PORT,MA,02675-1843,41.706920000000004,-70.221117,508-364-9082,7362.119999999994,57
9b3c647e-19a8-3017-9980-cb3c0160f3d9,CHARLTON FAMILY PRACTICE,246 SOUTHBRIDGE RD,CHARLTEN,MA,01507-7251,42.097282,-72.05503399999998,508-248-4801,20278.11999999998,158
21a640ac-75c3-36d6-bf12-ef811d90c7c3,OPHTHALMOLOGY INC,235 HANOVER ST,FALL RIVER,MA,02720-5299,41.725351,-71.094162,508-679-0150,10461.959999999992,81
395fac80-d8f3-3ffd-b424-44e8efa9257d,FAMILY EYE CARE  INC.,177 MAIN ST,SPENCER,MA,01562-1711,42.247211,-71.991867,508-885-2219,4778.919999999997,37
acd28a8d-3d91-3791-93b3-7d57a4424192,LC HOLBROOK  INC.,49 PEARL ST,BROCKTON,MA,02301-2817,42.082543,-71.024638,508-580-9995,4908.079999999997,38
72e3a0d2-e6dc-37f6-a186-980f728bc46e,PCP76408,303 BEECH ST,HOLYOKE,MA,01040-3968,42.211656,-72.642448,413-540-1100,4003.959999999998,31
269139b2-fa10-356e-96ee-c06b029b3eba,PCP77155,148 CHESTNUT ST,NEEDHAM,MA,02492-2505,42.281593,-71.242414,781-453-3000,4262.279999999998,33
2dc7a6b2-bee6-3ae6-b3fe-4117382d73ee,PCP78624,56 MAIN ST,ASHBURNHAM,MA,01430-1242,42.648697,-71.919896,978-790-5789,5553.8799999999965,43
1eb4269f-7fec-3680-9473-35d42fe70b2d,PCP78716,875 MASSACHUSETTS AVE,CAMBRIDGE,MA,02139-3071,42.376043,-71.11868,617-797-7598,2454.04,19
1f1f6e6b-1ca7-3d0a-8bad-2c9fb1bcc4ee,PCP80208,111 WASHINGTON ST,PLAINVILLE,MA,02762-2155,42.012797,-71.336578,508-699-2553,5812.199999999996,45
6388fbef-678b-307b-9b9d-0b49812f1a3c,VALLEY EYE PHYSICIANS AND SURGEONS  P.C.,190 GROTON RD,AYER,MA,01432-1124,42.566573,-71.575135,978-772-4000,4003.959999999998,31
f4f12501-41cb-31cf-870b-ebc86d930490,PCP80545,8 LAUREL ST,WHITMAN,MA,02382-2436,42.078974,-70.93939,781-447-2691,5295.559999999997,41
d9aed10c-3655-3a5f-8727-ddb14d964cf0,PCP80782,316 W MAIN ST,NORTON,MA,02766-2100,41.965340999999995,-71.18178,508-223-5552,2970.6799999999994,23
207fb60f-2e5b-3656-bed2-d5bb48d37e41,PCP81046,45 STERLING ST,WEST BOYLSTON,MA,01583-1268,42.369417,-71.785036,508-754-6444,4133.119999999998,32
29437dd4-1165-3098-a113-d55d1150ecea,PCP82077,287 WASHINGTON ST,S ATTLEBORO,MA,02703-5524,41.931653,-71.294503,508-399-6036,8395.399999999994,65
7e54a5b1-55c2-3acd-9d4c-2afcff354ff0,INTER MED ASSOCIATES  P.C.,72 CUDWORTH RD,WEBSTER,MA,01570-3106,42.047075,-71.845805,508-461-0011,8007.919999999994,62
08a8eb50-654a-3acf-ac45-58c10823aa40,PCP82911,233 HARVARD ST,BROOKLINE,MA,02446-5017,42.323853,-71.142003,781-674-9124,3358.159999999999,26
0507f525-c041-34d0-b731-f39f2b7239c0,PCP83022,32 E NORTHFIELD RD,NORTHFIELD,MA,01360-9668,42.677091,-72.453876,413-773-0009,3874.7999999999984,30
cec2cd99-6c3d-3286-b692-33adf5f01285,MONTAGUE PSYCHOLOGICAL ASSOCIATES,356 MONTAGUE CITY RD,TURNERS FALLS,MA,01376-1830,42.597445,-72.555278,413-774-2981,7232.959999999995,56
2e785cc7-55e1-339b-99f4-6fa2bb4cdb44,PCP83156,150 YORK ST,STOUGHTON,MA,02072-1829,42.119006,-71.10365,781-344-0600,5812.199999999996,45
7f7c08c8-1c39-3b26-bd34-5122a003dd91,PCP83180,107 FERRY ST,EVERETT,MA,02149-4940,42.405938,-71.054649,617-389-6951,5424.719999999997,42
4339cd67-e191-3810-a125-3e00c14ad9b2,PCP83308,21 WHITTLESEY RD,NEWTON,MA,02459-2621,42.331876,-71.208402,617-332-0032,5037.239999999997,39
ee63d0cc-dd41-3467-bdff-320b17feb771,ERIC J WOODARD MD PC,125 PAKER HILL AVE,BOSTON,MA,02120-2847,42.338551,-71.018253,781-749-9071,1679.0800000000004,13
91bfd81e-7c55-3bb0-b522-9bfa71e5586d,PCP83737,45 S ORLEANS RD,ORLEANS,MA,02653-2422,41.76935,-69.969034,,4908.079999999997,38
7822d180-f10b-3053-8c26-7ac9a25c5cdb,METIS PSYCHOLOGICAL ASSOCIATES,420 MAIN ST,WALPOLE,MA,02081-3753,42.146285999999996,-71.255604,781-963-1200,5553.8799999999965,43
8e3e1d8e-2868-377c-9c21-f75be76a424c,WALTHAM BEHAVIORAL HEALTH LLC,210 BEAR HILL RD,WALTHAM,MA,02451-1025,42.388921,-71.24226800000001,781-966-0070,4262.279999999998,33
8d175cef-af8d-3b80-b495-466b2303c8b6,PCP84938,280 N MAIN ST,EAST LONGMEADOW,MA,01028-1814,42.062378,-72.498111,413-776-9625,6328.839999999996,49
2ef56205-01df-3799-bc11-730c09e28b4d,PCP85389,126 COMMONWEALTH AVE,DEDHAM,MA,02026-1441,42.246871999999996,-71.179462,617-522-1919,9428.679999999993,73
0f8645f9-7e98-379f-b61f-c6a14d620e73,PCP85698,151 FRONT ST,HOUSATONIC,MA,01236-0092,42.246125,-73.361858,413-274-6039,7749.599999999994,60
372f04f6-cbd1-3ad9-a195-1ec91eca7284,PCP86538,68 LEONARD ST,BELMONT,MA,02478-2522,42.395317,-71.180284,,2066.5600000000004,16
9aab4d91-54fb-3743-915a-de41ad413ed8,PHYSICAL THERAPY AND FITNESS CENTER OF RAYNHAM  INC.,675 PARAMOUNT DR,RAYNHAM,MA,02767-5416,41.930477,-71.046214,508-828-1011,7232.959999999995,57
406745b3-482d-3eb1-9e8b-c10f911980fd,AMERICAN HELP CENTERS  INC.,196 E MAIN ST,FALL RIVER,MA,02724-3323,41.725351,-71.094162,508-674-4357,3616.4799999999987,28
909a0f76-d1bc-3354-a883-82d002a29123,LYNNFIELD PSYCHOLOGICAL ASSOCIATES  PC,180 MAIN ST,LYNNFIELD,MA,01940-2514,42.534146,-71.038333,781-334-2644,6974.639999999995,54
73087250-f785-399c-916a-4815188f9753,PCP89048,173 ESSEX ST,SWAMPSCOTT,MA,01907-1150,42.468059000000004,-70.89126,,7878.759999999994,61
7b55b090-9478-3a40-8761-fd13452ae359,NORTHEAST SENIOR OPTIONS LLC,1 R NEWBURY ST,PEABODY,MA,01960-3816,42.534279,-70.969782,978-535-1606,3228.999999999999,25
eb4de48f-6c0a-31fa-a3f5-6b51ce85996e,NEW ENGLAND DERMATOLOGY PC,3455 MAIN ST,SPRINGFIELD,MA,01107-1147,42.115454,-72.539978,413-733-9600,4908.079999999997,38
20417c65-4950-3a66-b972-15fb309ffe55,REHAB RESOLUTIONS INC,1111 ELM ST,WEST SPRINGFIELD,MA,01089-1540,42.125451,-72.649734,413-736-2250,3616.4799999999987,28
f361eedf-8ff2-3500-8740-e7d121f9731d,MASS BAY SPINE AND SPORT PHYSICAL THERAPY  INC.,506 PLAIN ST,MARSHFIELD,MA,02050-2745,42.115139,-70.71033100000001,781-319-0024,6716.319999999995,52
927793de-5e96-38ba-9944-14f40ad591c9,PCP91447,359 RUSSELL ST,HADLEY,MA,01035-3536,42.356491,-72.568632,413-584-8324,3616.4799999999987,28
e0ba4ea4-4658-3465-8ed1-171d87ebf9d2,PCP92222,80 MECHANIC ST,ATHOL,MA,01331-2053,42.575924,-72.229618,978-249-7818,1937.4000000000005,15
87f6941d-90f6-3c1d-b443-4038458cf8d7,PLATINUM PHYSICAL THERAPY  INC.,15 W UNION ST,ASHLAND,MA,01721-1464,42.257754999999996,-71.473526,508-881-6750,3874.7999999999984,30
04407555-4681-33b8-9b33-e0eb0d6e1849,ADVANCED EYE CENTERS INC,500 FAUNCE CORNER RD,N DARTMOUTH,MA,02747-1255,41.646686,-70.999158,508-717-0270,4262.279999999998,33
527fd92b-5372-3dec-9363-626a186a92aa,PCP93828,360 W BOYLSTON ST,WEST BOYLSTON,MA,01583-2370,42.369417,-71.785036,,3745.6399999999985,29
06554ce1-b5ed-37f3-b3da-8493fc33b115,PCP94138,955 MAIN ST,WINCHESTER,MA,01890-1992,42.452752000000004,-71.144319,,5295.559999999997,41
f9d686d4-0133-30a3-ab72-80c9e93921f4,PCP95496,169 N FRANKLIN ST,HOLBROOK,MA,02343-1111,42.140346,-70.997861,,19244.839999999982,149
c0dab828-5db5-3e9f-8529-cf7dd1d1ed33,PCP95658,99 4TH ST,CHELSEA,MA,02150-2326,42.396824,-71.031348,,8266.239999999994,64
a0c4098e-a8bd-3eee-a82a-3e72b621ff70,PCP96205,186 BURRILL ST,SWAMPSCOTT,MA,01907-1835,42.468059000000004,-70.89126,,2324.88,18
7138b31f-5167-349c-950b-c3a73efb3e63,PCP96589,473 S ST W,RAYNHAM,MA,02767-5306,41.930477,-71.046214,,2454.04,19
88a8715d-6a5f-3730-a889-73c754de34d8,PCP98242,154 MERRIMACK ST,LOWELL,MA,01852-1718,42.63898,-71.321141,,5424.719999999997,42
c4f2e605-d695-34f4-ab72-79685fbf9a67,PCP98689,43 CUMMINS HWY,ROSLINDALE,MA,02131,42.33196,-71.020173,,5553.8799999999965,43
7a334d76-d46e-304f-9609-50b321f31b65,PCP100060,210 JONES RD,FALMOUTH,MA,02540-2974,41.594939000000004,-70.599243,,6587.159999999995,51
9265b9e0-9d1d-3b31-ba11-432886a3f892,PCP100846,555 MAIN ST,SHREWSBURY,MA,01545-2932,42.284766999999995,-71.714228,,9041.199999999993,70
b5e26f16-af8e-33d5-b221-e7216ab7abc5,PCP102180,62 DERBY ST,HINGHAM,MA,02043-3718,42.224319,-70.880673,,7232.959999999995,56
5181acd0-4c26-3172-9068-138966873eb6,PCP102671,22 W ST,MILLBURY,MA,01527-2622,42.192246000000004,-71.777649,,3616.4799999999987,28
8d99f121-4a71-3d6c-b31b-22665da28817,PCP102891,651 WASHINGTON ST,BROOKLINE,MA,02446-4518,42.323853,-71.142003,,1033.28,8
49576e6f-f875-3d69-89a7-1bd016f0b33a,PCP104516,171 MAIN ST,ASHLAND,MA,01721-1185,42.257754999999996,-71.473526,508-881-7766,7362.119999999994,57
9098c4b0-6b32-35c8-8094-9adb8dce7390,PCP105118,121 NANTASKET AVE,HULL,MA,02045-3106,42.340233000000005,-70.883301,,6328.839999999996,49
2a4518d8-7014-3404-b2e9-1c30c76b6a12,OUTBACK PHYSICAL THERAPY  INC.,149 A HIGHLAND AVE,SOMERVILLE,MA,02143-1650,42.390445,-71.101033,617-718-9300,11107.759999999991,86
0cd03411-0b0e-327d-aea2-d9b426ac1d67,NEUROSURGERY CENTER OF SOUTHERN NEW ENGLAND  PC,537 FAUNCE CORNER RD,DARTMOUTH,MA,02747-1242,41.56651,-70.958229,508-672-0545,7362.119999999994,57
eed74a67-0fc2-358d-9bb7-ac47a85b9c35,LOWELL ORAL SURGERY ASSOCIATES  INC,33 BARTLETT ST,LOWELL,MA,01852-1335,42.63898,-71.321141,978-458-1264,4262.279999999998,33
abd13c9a-fc39-3fac-9de2-9cd307fe49b7,PCP107325,57 PROSPECT ST,NANTUCKET,MA,02554-2799,41.293416,-70.10216899999999,,1291.6000000000001,10
68cee1fa-8311-3f11-b2b5-07aae9231c35,GREENDALE PHYSICAL THERAPY LLC,145 CHURCH ST,CLINTON,MA,01510-2560,42.411887,-71.690005,978-598-3155,4520.599999999998,35
c8efd4a4-f740-3766-bf0c-41f7d1bf9713,PCP109247,439 MAIN ST,HUDSON,MA,01749-1855,42.389071,-71.545864,,8782.879999999994,68
d496ec27-3707-342f-b8d0-562687e9e740,PCP111038,4 BARLOWS LANDING RD,POCASSET,MA,02559-1980,41.688804,-70.639267,,5166.399999999997,40
e380d6b5-8dfa-398e-9498-2e7e57b0972e,PCP111557,20 PARKINGWAY,COHASSET,MA,02025-1700,42.262428,-70.79888299999999,,8007.919999999994,62
67f862f0-9a48-3bf8-a95b-cde4979ae062,PCP112182,335 MAIN ST,SAUGUS,MA,01906-3143,42.468432,-71.01394599999999,781-233-9570,3228.999999999999,25
1c9f06a8-38bb-3d07-99b2-176d626bc4c2,PCP113281,111 WASHINGTON ST,PLAINVILLE,MA,02762-2155,42.012797,-71.336578,,6587.159999999995,51
24fa5ed6-53cc-38aa-96ca-ed5401665f5c,HYANNIS FAMILY MEDICAL CARE P.C.,105 PARK ST,HYANNIS,MA,02601-5205,41.647227,-70.249978,774-470-1370,3616.4799999999987,28
86db1590-c568-39d8-9d28-add256c6f13e,DEBS CHIROPRACTIC P.C.,352 BOSTON TPKE,SHREWSBURY,MA,01545-3873,42.284766999999995,-71.714228,508-425-3305,6328.839999999996,49
d9242200-7588-3df0-8ff0-61a45b07c487,PCP114043,32 NYE AVE,ACUSHNET,MA,02743-2750,41.718216999999996,-70.901151,,16015.839999999986,124
630fd121-46d1-30e7-8a66-d5c08d43ec93,PCP114518,22 MILL ST,ARLINGTON,MA,02476-4738,42.418721999999995,-71.163912,,3616.4799999999987,28
585ca21e-00e8-3c7d-b21f-70e863497cd2,PCP114946,538 NANTASKET AVE,HULL,MA,02045-2535,42.340233000000005,-70.883301,,2324.88,18
b96d72a6-2414-3527-9421-a4b40d4b721d,SOUTH SHORE INTERNAL MEDICINE ASSOCIATES INC.,100 HIGHLAND ST,MILTON,MA,02186-3881,42.241557,-71.082432,617-698-8855,4778.919999999997,37
00065b1c-5e71-3da5-907f-e9fc33eddbbf,PCP115959,170 MAIN ST E,MONSON,MA,01057-1353,42.093596000000005,-72.321494,,7232.959999999995,56
9a6b5abc-68be-3ee9-a7d4-52f615318596,HIGHLAND SURGICAL ASSOCIATES LLC,100 HIGHLAND ST,MILTON,MA,02186-3801,42.241557,-71.082432,617-696-0660,10203.639999999992,79
c9216d86-bc94-32af-98e6-3efe8e0bb31b,PCP116564,143 W MAIN ST,WEST BROOKFIELD,MA,01585-2812,42.256691,-72.158169,508-867-6161,8912.039999999994,69
c2c9a655-efd6-36f5-af9c-3dd46c1f7a03,PCP116731,679 PLEASANT ST,PAXTON,MA,01612-1380,42.311693,-71.940282,,4908.079999999997,38
baa6f347-9f26-30c5-8539-3dc015beedd5,PCP117132,935 WASHINGTON ST,NORWOOD,MA,02062-3411,42.187364,-71.195971,,3616.4799999999987,28
e0ce9234-008a-3001-a3d2-ecdfdf9ca8d2,PCP117400,105 CHESTNUT ST,NEEDHAM,MA,02492-2520,42.281593,-71.242414,,5553.8799999999965,43
816b0379-f752-3a7c-bcc9-b4a29653122d,PCP117723,313 MAPLE ST,EAST LONGMEADOW,MA,01028-2763,42.062378,-72.498111,,3358.159999999999,26
df307868-cb89-31d5-8894-1ddbc7f7fbda,PCP118039,118 GREAT RD,STOW,MA,01775-1190,42.429688,-71.512514,,8524.559999999994,66
49bf5812-29f3-32c7-88de-329eb3864885,PCP118875,627 COLLEGE HWY 2,SOUTHWICK,MA,01077-9829,42.05257,-72.777353,,4649.7599999999975,36
c4aa5da1-049c-327a-ac70-caea79514b36,PCP119903,140 COMMONWEALTH AVE,DANVERS,MA,01923-3625,42.574174,-70.95051600000001,,5683.039999999996,44
1976fb33-5ea0-3308-82a7-df537365de28,PCP120212,2 LINDEN ST,READING,MA,01867-2974,42.535183,-71.105423,,1808.2400000000005,15
db83f1ca-8e05-34a9-8b78-62e4b9172715,PCP120507,1 WIDGER RD,MARBLEHEAD,MA,01945-2146,42.495629,-70.83582,781-631-1777,12141.03999999999,94
0a7a71d0-faaa-3ac4-9b79-de57a6d56f8f,PCP120560,121 BROAD ST,LYNN,MA,01901-1629,42.474862,-70.96218499999999,,4391.439999999998,34
2db889da-7f59-3bdb-9f98-4d40f24a2540,PCP121054,31 PINE ST,NORFOLK,MA,02056-1642,42.116244,-71.329274,,4262.279999999998,33
8114ba40-cf04-3c1c-9d25-ee5d58bab117,PCP121174,400 WASHINGTON ST,BRAINTREE,MA,02184-4723,42.205416,-71.00216800000003,,3874.7999999999984,30
27e68156-6498-36d3-a70d-8cd73f34cf90,PCP121519,2277 STATE RD F,PLYMOUTH,MA,02360-7111,41.897892,-70.62403,,2195.7200000000003,17
e4ce327e-73b3-30c2-92b2-438a69bc39e5,PCP122118,919 MAIN ST,WILBRAHAM,MA,01095-2647,42.126883,-72.430952,,8912.039999999994,70
a1331f5d-b18b-318a-b376-81d14db5983f,PCP122892,76 MAIN ST,PEPPERELL,MA,01463-1561,42.670643,-71.602858,978-433-0517,4003.959999999998,31
476a6290-43dd-32db-872f-9c7ad4f04d56,EXETER EYE ASSOCIATES LLC,159 SQUARE ONE MALL,SAUGUS,MA,01906-4181,42.468432,-71.01394599999999,781-231-1535,6845.479999999995,53
c4aa0990-a6d8-3d5f-a6d9-f640761ec82d,PCP123085,200 WALNUT ST,SAUGUS,MA,01906-1175,42.468432,-71.01394599999999,,4003.959999999998,31
12f5595c-78d8-314b-8b02-7bef6558e8ee,PCP123143,288 LITTLETON RD,WESTFORD,MA,01886-3527,42.585541,-71.44025,,4520.599999999998,35
42155e5d-1678-389e-bf85-3af30a5700fa,PCP123154,512 MAIN ST,SHREWSBURY,MA,01545-6405,42.284766999999995,-71.714228,,3616.4799999999987,28
fabd762f-fd01-34fe-8231-180e3181b3b5,PCP123458,175 CAMBRIDGE ST,BURLINGTON,MA,01803-2923,42.503227,-71.201713,,1420.7600000000002,11
0a572805-ad5e-3d69-afb6-d0e3f43bc3ff,PCP123493,495 W ST,AMHERST,MA,01002-3379,42.363534,-72.50729100000001,413-687-3878,6199.679999999996,48
fb10e721-8a1f-38a9-881b-665feabd8832,PCP123934,167 SWANSEA MALL DR,SWANSEA,MA,02777-4102,41.758163,-71.21418100000001,,904.1199999999999,7
7cf88261-a2fd-3156-b396-6ec0641abc2a,PCP124160,1150 RIVER ST,HYDE PARK,MA,02136-2917,42.33196,-71.020173,,4262.279999999998,33
1776755d-7040-3d15-b588-d67de0149d76,PCP124300,5 CROWLEY RD,WESTHAMPTON,MA,01027-9637,42.314078,-72.777977,,9686.999999999993,75
e305522d-d431-39a2-a006-140effe9dc22,PCP124647,1520 BLUE HILL AVE,MATTAPAN,MA,02126-1747,42.33196,-71.020173,,4133.119999999998,32
8205e567-db57-3f4c-9daf-2d5b409eebb4,PCP125305,439 S UNION ST,LAWRENCE,MA,01843-2837,42.700272999999996,-71.161357,,7103.799999999995,55
ddd36418-49d0-35fb-882c-45d12c8349e4,CENTER FOR DIGESTIVE WELLNESS PC,105 ERDMAN WAY,LEOMINSTER,MA,01453-1805,42.520876,-71.770611,978-537-7552,2066.5600000000004,16
16014101-0356-3e8c-9508-eb3114d3afcb,ATLANTIS PHYSICAL THERAPY GROUP INC,62 WARREN ST,ROXBURY,MA,02119-3253,42.33196,-71.020173,617-442-0111,8653.719999999994,67
8fd3cd31-fdf5-39dd-8860-95ab17cfd59c,PCP126306,39 WONKAPIT WAY,CHATHAM,MA,02633-1258,41.621629,-69.98195600000001,,5683.039999999996,44
dc4038ce-46ce-3540-8beb-506b56b14aa5,PCP127217,29 HUBBARDSTON RD,PRINCETON,MA,01541-1808,42.454125,-71.87754,,7620.439999999994,59
a8b36eec-d44f-379c-acd2-d3d082bca238,PCP127958,1020 PLAIN ST,MARSHFIELD,MA,02050-2179,42.115139,-70.71033100000001,,12399.35999999999,96
c60b66d8-ce80-3d94-b4a7-2d97367a801b,PCP128550,140 MAIN ST,GROTON,MA,01450-1271,42.61176,-71.565269,,2066.5600000000004,16
e9e2998f-97d3-3f88-8ee8-82660c5ddfce,PCP128586,2360 CRANBERRY HWY,W WAREHAM,MA,02576-1208,41.748854,-70.74053599999998,,8912.039999999994,69
fbbf379a-2cf8-3818-b3ff-62f88d68ce77,PCP129065,11 TREMONT ST,KINGSTON,MA,02364-1231,41.987196000000004,-70.74194200000001,,4520.599999999998,35
3fe0fb59-f52b-3323-8fea-d05ccb31a177,PCP129774,250 SALEM ST,REVERE,MA,02151-1018,42.421005,-70.99036,,4520.599999999998,35
0ac2db30-f3cf-3db9-a0ac-236e1b382b70,PCP129844,114 WHITWELL ST,QUINCY,MA,02169-1870,42.261006,-71.008988,617-639-5006,4262.279999999998,33
62b534eb-cbbc-3c46-9f95-ef4c35a6b359,PCP130952,2 OAK ST,MASHPEE,MA,02649-6410,41.617622999999995,-70.492713,,8137.079999999994,63
7af15bd8-12c4-397b-8018-a1dd2c1085a7,PCP131692,199 REEDSDALE RD,MILTON,MA,02186-3926,42.241557,-71.082432,,7491.279999999994,58
4afe828b-d23e-3b89-afa4-f2fa00720415,PCP131717,31 WILLIAMSTOWN RD,LANESBOROUGH,MA,01237-9524,42.535857,-73.24113299999999,,1291.6000000000001,10
04c749da-634e-3e9e-9806-a5052635370e,PCP133287,1592 GAR HWY,SOMERSET,MA,02726-1210,41.738479,-71.165065,,16403.319999999985,127
80dedc30-5972-3f62-8dba-fc0f5c77cffd,PCP133637,19 FRONT ST,SALEM,MA,01970-3795,42.499248,-70.898204,,1420.7600000000002,11
d678d69e-84bd-340f-aa3e-88629727c34a,PCP133930,444 HUMPHREY ST,SWAMPSCOTT,MA,01907-2557,42.468059000000004,-70.89126,,11882.71999999999,92
4c8ab5ea-8f75-3a89-8c25-853811d0f9b5,WESTERN MASS NEUROLOGY PC,175 CAREW ST,SPRINGFIELD,MA,01104-2389,42.115454,-72.539978,413-737-4100,3874.7999999999984,30
2a994f69-042f-3e02-a223-acabc117d94a,PCP134708,284 MONPONSETT ST,HALIFAX,MA,02338-1431,42.002634,-70.86370600000001,,4133.119999999998,32
8b372f3b-8269-325b-99c1-b7e8b581ae34,PCP135256,61 LINCOLN ST,FRAMINGHAM,MA,01702-8264,42.307905,-71.436196,508-879-5040,5166.399999999997,40
586d90ae-7754-30c2-996b-9e62e75227d3,PCP136067,163 N MAIN ST,NORTH BROOKFIELD,MA,01535-1400,42.267564,-72.06687600000001,,2066.5600000000004,16
cd72ff93-df2c-3edf-983f-cfd6d525bced,PCP136376,591 N,WAKEFIELD,MA,01880-1640,42.50436,-71.064061,,3616.4799999999987,28
5f5140f3-df3b-3af2-bc42-a671fc6a5a28,PCP137171,17 N AVE,ROCKLAND,MA,02370-2123,42.129251000000004,-70.908736,,6328.839999999996,49
08061cd7-a7b6-3ce7-a74b-0296560e57b6,PCP139602,33 LINCOLN ST,NEWTON HIGHLANDS,MA,02461-1526,42.331876,-71.208402,,1291.6000000000001,10
8a9411ac-7762-32ed-8393-d684f4b52339,NORTHEAST ORTHOPEDIC ASSOCIATES  PC,250 POND ST,BRAINTREE,MA,02184-5351,42.205416,-71.00216800000003,781-461-4543,4003.959999999998,31
cf72ee74-07e6-3547-902c-5ac720ea41ca,PCP141017,109 B COUNTY RD,N FALMOUTH,MA,02556-2019,41.601508,-70.639317,508-563-6655,14336.759999999987,111
cedd6b5c-071e-354d-bdf1-7b95186ab530,PCP141059,30 LAFAYETTE SQ,HAVERHILL,MA,01832-4739,42.782945,-71.087436,,3228.999999999999,25
e46b96a5-54e4-34ab-89d1-54645eb2ce6e,PCP141257,55 FOGG RD,WEYMOUTH,MA,02190-2432,42.206676,-70.94584499999998,,8007.919999999994,62
f7adcddb-2daf-318b-aeeb-cf270c761360,PCP141303,300 CHESTNUT ST,NEEDHAM,MA,02492-2477,42.281593,-71.242414,,3874.7999999999984,30
6c455375-25b6-37ae-9f2d-2c2130fa845a,PCP141449,488 NEWTON ST,SOUTH HADLEY,MA,01075-2041,42.256208,-72.58103,,3616.4799999999987,28
e77320b7-d6f9-3218-a39f-81d6e344a6af,FAMILY MEDICINE ASSOCIATES OF SOUTH ATTLEBORO  P.C.,562 WASHINGTON ST,SOUTH ATTLEBORO,MA,02703-6942,41.931653,-71.294503,508-761-5650,7620.439999999994,59
b1782f9b-dbb7-36cc-9a9f-d82689a7e27f,PCP141872,83 FAUNCE CORNER RD B,NORTH DARTMOUTH,MA,02747-1210,41.646686,-70.999158,,8266.239999999994,64
1cf35b8c-ec81-3f61-b821-3b9bd05656ab,PCP141914,15 W ST,DOUGLAS,MA,01516-2160,42.053072,-71.752241,,2195.7200000000003,17
3ed98587-8c4c-33b4-9cbe-ec7fc451d2b6,PCP143874,242 JOHN WISE AVE,ESSEX,MA,01929-1027,42.64042,-70.77117199999999,,4003.959999999998,31
0b0da496-d889-37d7-b9d2-c4aaa7b40f47,PCP145088,300 TRADE CTR,WOBURN,MA,01801-7420,42.488769,-71.154438,,1679.0800000000004,13
d1181f0b-0379-35b5-9e7e-8abdf60f800b,PCP145212,125 PARKER HILL AVE,BOSTON,MA,02120-2850,42.338551,-71.018253,,3745.6399999999985,29
767f35fc-f953-37d6-8849-c5f75ce86142,RONALD I GOLDBERG MD,62 BROWN ST,HAVERHILL,MA,01830-6790,42.782945,-71.087436,978-521-6555,2454.04,19
871452d1-2b77-3981-92ce-a3c3c6dc4be5,PCP146943,16 WATER HOUSE RD,BOURNE,MA,02532,41.717459999999996,-70.591824,,4391.439999999998,34
870c851a-1a2f-3a4d-b01a-6572b6f4f042,ORTHOPAEDIC SPECIALISTS OF MASSACHUSETTS PC,100 HIGHLAND ST,MILTON,MA,02186-3874,42.241557,-71.082432,617-696-9299,2324.88,18
d22103d5-fb64-3965-b409-d9d85cfe601a,PCP148430,2 TECHNOLOGY PARK DR,BOURNE,MA,02532-8341,41.717459999999996,-70.591824,,3358.159999999999,26
2cfd240e-3280-34b6-96cc-daf60ad5d14f,PCP148963,21 E MAIN ST,AVON,MA,02322-1413,42.132461,-71.054013,508-586-1046,20019.79999999998,155
8ac504c8-dda0-32bb-84ba-ac4054249e8b,PCP149132,93 WASHINGTON ST,HAVERHILL,MA,01832-5569,42.782945,-71.087436,978-374-0700,6974.639999999995,54
ec4d78b1-5947-3274-ab29-1a733fa41970,PCP149317,45 LYMAN ST,WESTBORO,MA,01581-2657,42.267441,-71.617492,,2583.2,20
de004a50-64ca-37eb-bf70-d5589fa7999f,PCP149816,512 BROADWAY,EVERETT,MA,02149-3778,42.405938,-71.054649,781-729-4344,4003.959999999998,31
463296bc-5a7c-3412-b888-eec038ac8e1b,PCP149962,1748 GRAND ARMY HWY,SOMERSET,MA,02726-1211,41.738479,-71.165065,,6457.999999999995,50
26b7b7c3-a8e4-34d8-ab36-f386d16bf9ba,PCP149986,400 WASHINGTON ST,BRAINTREE,MA,02184-4764,42.205416,-71.00216800000003,,4778.919999999997,37
b84fd170-71a9-3989-bb5b-b0810f6f5410,PCP150237,157 CTR BRIDGE RD,LANCASTER,MA,01523-2227,42.483569,-71.675585,,5424.719999999997,42
ff038275-29a5-32b0-918b-fae967a15738,PCP151160,54 HOPEDALE ST,HOPEDALE,MA,01747-1700,42.123007,-71.53140400000001,,3099.8399999999992,24
fdd82d55-effd-37c8-8019-c042745fb3d0,PCP151396,337 BELGRADE AVE,ROSLINDALE,MA,02131-2757,42.33196,-71.020173,,5295.559999999997,41
6bd710e4-40a9-33c9-bccc-d3cd89116f3c,PCP152493,264 UNION AVE,FRAMINGHAM,MA,01702-6348,42.307905,-71.436196,781-591-2775,2195.7200000000003,17
f763c1a6-bc50-32ed-abcd-10c73c83ea71,PCP152802,95 WASHINGTON ST,CANTON,MA,02021-4006,42.175737,-71.125385,,8137.079999999994,63
d174d52b-8afd-3e6d-912c-45c9b2e9db0b,PCP154021,6 UNION ST,NATICK,MA,01760-4784,42.284822,-71.348811,,5812.199999999996,45
f8cca31d-aeb0-341a-8f4c-f13836e87fb2,PCP154909,255 PARK AVE,WORCESTER,MA,01609-1988,42.269478,-71.807783,,3228.999999999999,25
c988b6b5-0e79-3f8b-a3b5-103bdccf96af,PCP154942,391 BROADWAY,EVERETT,MA,02149-3471,42.405938,-71.054649,,7232.959999999995,56
150d4bec-d11c-3014-8818-45127743725d,PCP155636,69 BAYVIEW AVE,BERKLEY,MA,02779-1924,41.838060999999996,-71.07761500000001,,31127.55999999997,242
ba55a743-95e4-3d49-98c9-fa5a0aeb6ad7,PCP156272,59 LONGWATER DR,NORWELL,MA,02061-1611,42.164569,-70.818844,,7362.119999999994,57
cbe82dc8-6dbb-3748-9472-6482b7c0f1b2,PCP156405,260 BOSTON POST RD,WAYLAND,MA,01778-1888,42.360427,-71.361099,,6845.479999999995,53
186b4ff0-7e03-3cc8-ab9a-de3d9c758a10,PCP157812,100 HIGHLAND ST,MILTON,MA,02186-3881,42.241557,-71.082432,,1808.2400000000005,14
181de298-12d8-368a-b13f-483c6afb066f,PCP158864,990 PARADISE RD,SWAMPSCOTT,MA,01907-1309,42.468059000000004,-70.89126,,7749.599999999994,60
d824a1d0-91c1-3bf7-984d-e1c489508e79,EYE EXAMS  LLC,339 SQUIRE RD,REVERE,MA,02151-4309,42.421005,-70.99036,781-289-5900,4133.119999999998,32
c4c1b51e-bc9d-3830-8727-64849d49440d,PCP160286,25 SCHOOL ST,QUINCY,MA,02169-6665,42.261006,-71.008988,,3487.319999999999,27
9cb9c46d-64f4-3f51-9cbb-f16b27e8b771,PCP161804,53 SPRINGFIELD ST,CHICOPEE,MA,01013-2624,42.175668,-72.572257,,1808.2400000000005,14
88a103f9-8486-3619-a47d-756669b258d0,PCP161890,1 BLACKBURN DR,GLOUCESTER,MA,01930-2237,42.62885,-70.685875,,7491.279999999994,58
39f0d0e7-798c-39cb-b2d3-73f6cb7dfed4,PCP162430,48 CONGRESS ST,SALEM,MA,01970-5137,42.499248,-70.898204,,2583.2,20
6e0ddf7b-3aed-3426-b330-f8273486fc7c,PCP163033,147 S MAIN ST,MIDDLETON,MA,01949-2446,42.610513,-71.007118,,4262.279999999998,33
0471e045-73e1-3540-a5e8-dbef0d4093b6,PCP164843,113 /2 MAIN ST,OXFORD,MA,01540-2832,42.12826,-71.8671,,3358.159999999999,26
f3600e6e-57a0-3477-a50b-459b2842c574,PCP165386,377 BELMONT ST,BROCKTON,MA,02301-4995,42.082543,-71.024638,508-580-5380,4262.279999999998,33
f3b73817-43cb-3762-8353-bcfb64aa9b10,PCP166078,120 STOCKWELL DR,AVON,MA,02322-1149,42.132461,-71.054013,508-232-4012,16919.959999999985,132
029f6d62-3f7a-3257-87d3-93d4d4bbd99e,PCP166298,195 ROUTE 6A,ORLEANS,MA,02653,41.76935,-69.969034,,12270.19999999999,95
2c3e6615-030f-35a7-aeb4-f32bbb83af26,PCP166560,150 BRYN MAWR AVE,AUBURN,MA,01501-1607,42.198708,-71.846006,,3616.4799999999987,28
24bcfc89-997e-3a62-a6c3-83ed31af8901,PCP167180,22 MCGRATH HWY 4,SOMERVILLE,MA,02143-4508,42.390445,-71.101033,,2583.2,20
616aa60c-0364-3315-ae16-7133ae5181bd,PCP167233,336 MAIN ST,WAKEFIELD,MA,01880-5013,42.50436,-71.064061,,3745.6399999999985,29
3c8b233a-6c05-3357-b6e0-97306efcf971,PCP167629,54 MAPLE AVE B,RUTLAND,MA,01543-1527,42.388284999999996,-71.969865,,14207.599999999988,110
3d7afe44-caf1-3223-ad8c-fa03f3049ef2,PCP168391,59 S ST,SHREWSBURY,MA,01545-3025,42.284766999999995,-71.714228,,3099.8399999999992,24
75bc27b3-2841-3c4f-9069-13bed81bfa6c,PCP168395,181 STATE RD,WHATELY,MA,01093,42.430995,-72.642437,,3616.4799999999987,28
bf831193-0c51-3d98-98bf-3ddd11eb4372,PCP168778,341 STATE RD,DARTMOUTH,MA,02747-4313,41.56651,-70.958229,,4003.959999999998,31
83bfd745-c137-3e00-ab8b-6bccba087abb,KRAUSS DERMATOLOGY PC,1 WASHINGTON ST,WELLESLEY HILLS,MA,02481-1737,42.30539,-71.28366899999997,781-416-3500,7103.799999999995,55
8af81765-3201-3d7e-a5c7-4ad99eba15d5,FRANK TWAROGMD CURTIS MOODY MDPTRS,86 BAKER AVE EXT,CONCORD,MA,01742-2132,42.462911,-71.364496,978-369-3567,3745.6399999999985,29
bdea333f-75aa-3da6-bb15-c02294f7775e,C AND S REHABILITATION INCORP,40 N MAIN ST,BELLINGHAM,MA,02019-1590,42.076682,-71.47449,508-966-2717,2324.88,18
26cae56e-4ab7-3af6-815b-96c5cab3ceae,PATRIOT URGENT CARE PROFESSIONALS  PC,154 GREAT RD,BEDFORD,MA,01730-2725,42.499295000000004,-71.281889,781-430-8161,5424.719999999997,42
c21ec1c3-0a39-3a6f-9a58-7a9ef6674fec,PCP170543,730 MAIN ST,MILLIS,MA,02054-1611,42.173103000000005,-71.36375600000001,508-533-3500,4520.599999999998,35
f43ccb73-d283-3d31-90d3-58e65ef30d0b,ADULT AND PEDIATRIC DERMATOLOGY  P.C.,340 MAPLE ST,MARLBORO,MA,01752-3295,42.349617,-71.547214,508-460-9613,7232.959999999995,56
2acd3148-fcd7-3092-8cac-60cafaeea43e,PCP171542,189 CHURCH ST,CARLISLE,MA,01741-1854,42.53662,-71.36183199999999,978-369-5093,7749.599999999994,60
a0e968f3-04d5-3aa2-9f35-4acf973178a2,PCP172012,20 MAIN ST,LEOMINSTER,MA,01453-5512,42.520876,-71.770611,,5812.199999999996,45
0834a7a7-9b70-3a27-a095-6dc8a1e13ecd,PCP173215,172 CAMBRIDGE ST,BURLINGTON,MA,01803-2984,42.503227,-71.201713,,5166.399999999997,40
c9abd93d-8106-37ce-8461-c8b8ee5494a9,NORTHAMPTON RADIOLOGIC ASSOCIATES  INC.,238 NORTHAMPTON ST,EASTHAMPTON,MA,01027-1046,42.265435,-72.670813,413-529-9300,4391.439999999998,34
caca1b73-f19c-3766-9f3d-1d104f3c9001,FITZPATRICK MORAN COSTA AND HAAG-RICKERT LLP,299 CAREW ST,SPRINGFIELD,MA,01104-2301,42.115454,-72.539978,413-781-6210,4649.7599999999975,36
d90869a6-06dc-31df-b4ca-e879d143ad44,ORTHOPAEDIC SPECIALISTS OF MASSACHUSETTS PC,825 WASHINGTON ST,NORWOOD,MA,02062-3488,42.187364,-71.195971,781-769-6720,2454.04,19
fcd63e0d-5f92-3385-9a77-6a6f74d2cb63,PCP177308,215 SUMMER ST,HAVERHILL,MA,01830-6305,42.782945,-71.087436,,8395.399999999994,65
0eb6a07b-1d9c-3545-b850-b165646462ba,PCP178064,32 S MAIN ST,RANDOLPH,MA,02368-4835,42.178993,-71.052654,,2841.5199999999995,22
6a4e017a-9c47-32b2-824d-03ea5f147c31,PCP178133,28 PACIFIC ST,ROCKLAND,MA,02370-2214,42.129251000000004,-70.908736,,2583.2,20
da3368de-5bfe-3b5b-881a-1b5d70a31e13,PCP178601,1183 MOHAWK TRL,SHELBURNE FALLS,MA,01370-9300,42.609509,-72.74698000000001,413-625-9267,9299.519999999993,73
c7aeb0e5-f9fa-3f89-9591-a90340335506,PCP178879,271 CAREW ST,SPRINGFIELD,MA,01104-2377,42.115454,-72.539978,,7749.599999999994,60
0508f565-d970-34cc-93a2-ed6d56fd69e3,PCP178883,49 STATE RD,NORTH DARTMOUTH,MA,02747-3322,41.646686,-70.999158,,6070.519999999996,47
9fb81927-c167-3c8a-8ebd-71a279460cc2,ADVOCATES  INC.,354 WAVERLY ST,FRAMINGHAM,MA,01702-7079,42.307905,-71.436196,508-661-2020,2583.2,20
8dc3f0b8-58cd-37d1-afd2-cb72501245d2,STEWARD ST. ELIZABETH'S MEDICAL CENTER OF BOSTON  INC.,77 WARREN ST 2ND FLOOR,BRIGHTON,MA,02135-3601,42.33196,-71.020173,,8653.719999999994,67
ddc1c390-e655-389a-af24-e55ec92f0eff,CENTER FOR PSYCHIATRIC MEDICINE PC,290 MERRIMACK ST,LAWRENCE,MA,01843-1782,42.700272999999996,-71.161357,978-685-8800,3874.7999999999984,30
4fa341c0-f4cd-3d61-9216-d4e26bf3cf8d,PCP183126,1176 MEMORIAL DR,CHICOPEE,MA,01020-3958,42.175668,-72.572257,,2712.3599999999997,21
4b6058b3-f244-3567-a62f-73aaafe55acb,MASSACHUSETTS EYE ASSOCIATES PC,500 CLARK RD,TEWKSBURY,MA,01876-1639,42.612088,-71.227845,978-256-5600,1291.6000000000001,10
5c2ac6f1-d8fa-33b4-a83d-968bd256e9c8,MASSACHUSETTS EYE ASSOCIATES PC,19 VILLAGE SQUARE,CHELMSFORD,MA,01824-2712,42.597055,-71.3697,978-454-7701,3487.319999999999,27
5ca73155-77c9-374f-b026-50187fb6ffa8,FIRST CHOICE COMMUNITY MEDICAL SERVICES PC,200 WASHINGTON ST,BOXFORD,MA,01921-1017,42.683108000000004,-71.01833,978-296-3781,5812.199999999996,45
ce0e9649-2966-3cbe-ac50-f8b38fd4aa28,NE NEPHROLOGY HOME CARE ASSOCIATES,2100 DORCHESTER AVE,DORCHESTER,MA,02124-5615,42.33196,-71.020173,617-296-4000,4262.279999999998,33
c3c463d8-c74a-3b85-915b-8e4356df2ee7,COMMONWEALTH PATHOLOGY PARTNERS PC,500 LYNNFIELD ST,LYNN,MA,01904-1424,42.474862,-70.96218499999999,781-477-3454,4262.279999999998,33
2db6f757-75bf-3b47-ade1-7f4ab21d2c39,PCP187185,155 BROADWAY RD,DRACUT,MA,01826-2754,42.679722999999996,-71.30068,,5553.8799999999965,43
360bc778-34b5-3e06-a384-e63f46aa3d80,PCP187651,63 S MAIN ST B,RANDOLPH,MA,02368-4862,42.178993,-71.052654,,3745.6399999999985,29
242e5bbe-87a7-3a15-8847-8ff68aba0c09,DALTON MEDICAL ASSOCIATES  LLP,33 N ST,DALTON,MA,01226-1202,42.479819,-73.15377600000001,413-684-2110,21440.55999999998,166
22637847-3263-3a72-8015-1e6345ffb62c,PCP190607,77 POND AVE,BROOKLINE,MA,02445-7115,42.323853,-71.142003,,9299.519999999993,72
ccce1094-1ec7-3b86-af36-bf98132ac9f4,PCP190661,15 COLLEGE HWY,SOUTHAMPTON,MA,01073-9274,42.226949,-72.74158800000001,413-527-5613,9041.199999999993,70
a22e0f11-8979-3fe5-94f4-28e804fb0ed6,LEWIS BAY CHIROPRACTIC CENTER INC,83 MAIN ST,HYANNIS,MA,02601-3134,41.647227,-70.249978,508-778-1050,3745.6399999999985,29
570849fa-6519-3a9f-9ab2-b20629274856,PCP191470,89 LEWIS BAY RD,HYANNIS,MA,02601-5240,41.647227,-70.249978,,2970.6799999999994,23
0851e08f-10d9-34de-a8b0-b6fe1bc381f2,PCP192079,40 INDUSTRY RD,MARSTONS MILLS,MA,02648-1760,41.662727,-70.357208,,6328.839999999996,50
d411130f-6941-38f9-bced-e6c3500ff57f,UROLOGY PRACTICE ASSOCIATES INC,100 W ST,NEEDHAM,MA,02494-1319,42.281593,-71.242414,781-433-2110,3616.4799999999987,28
07b16f02-4653-3b89-9ea1-79a8680ba442,PCP192806,68A ROUTE 6A,SANDWICH,MA,02563-1864,41.7132,-70.485737,,8007.919999999994,62
1a3625e3-aae0-305c-ae4b-ed26eaefa2b6,PCP193461,983 BENNINGTON ST,EAST BOSTON,MA,02128-1134,42.375541,-70.970646,,12786.83999999999,99
cd73db8e-d5f4-3810-86ed-0cefbf2d670d,PCP193899,70 E ST,METHUEN,MA,01844-4597,42.742751,-71.178588,,4003.959999999998,31
a3101611-de33-3a78-8ec6-81a0a2f62da2,PCP194594,280 MERRIMACK ST,LAWRENCE,MA,01843-1780,42.700272999999996,-71.161357,,11236.919999999991,87
1c603070-a7ce-3d97-8e01-6e8171b34776,LOUIS B. COIRO  INC,885 MAIN ST,TEWKSBURY,MA,01876-1800,42.612088,-71.227845,978-851-8768,8524.559999999994,66
d732aa1b-59ab-33bf-9ca5-9039aa80ab72,MASS SPORT AND SPINE INC,940 HIGH ST,WESTWOOD,MA,02090-2762,42.219645,-71.216768,781-708-9056,5166.399999999997,40
0538a7b8-ae6f-3619-b9b4-02ebbee3bf15,SQUARE MEDICAL GROUP LLC,884 WASHINGTON ST,WEYMOUTH,MA,02189-1530,42.206676,-70.94584499999998,781-812-1643,3228.999999999999,25
0de7d64d-5c6f-3250-a082-bfa1d59b735d,ARRIGG ASSOCIATES   P.C.,439 S UNION ST,LAWRENCE,MA,01843-2800,42.700272999999996,-71.161357,978-686-2983,2712.3599999999997,21
41d23e0d-a557-3c43-aae3-dd305eae5083,SWIFT RIVER MEDICAL ASSOCIATES LLC,35 BRIDGE ST,BELCHERTOWN,MA,01007-8924,42.27901,-72.400468,413-213-0550,3874.7999999999984,30
2bfca57a-4542-37fa-9db5-96b2e779b8a8,PCP197059,21 CENTRAL ST,ANDOVER,MA,01810-3703,42.648044,-71.161751,978-475-8877,4908.079999999997,38
15ccacfa-c75c-3900-b77e-72a1563433af,PIONEER VALLEY GASTROENTEROLOGY ASSOCIATES  PC,10 HOSPITAL DR,HOLYOKE,MA,01040-6603,42.211656,-72.642448,413-534-6033,2195.7200000000003,17
d630f367-3940-3a01-b03a-19028960a2f3,YOUTH OPPORTUNITIES UPHELD  INC.,81 PLANTATION ST INC,WORCESTER,MA,01604-3069,42.269478,-71.807783,508-755-2589,3099.8399999999992,24
38b0a719-0dbd-3d07-a8a2-841ffc6c2743,HALLMARK IMAGING ASSOCIATES  PC,41 MONTVALE AVE,STONEHAM,MA,02180-2445,42.474208000000004,-71.097665,781-224-5806,4262.279999999998,33
bbfbed2d-7be4-36d7-be7a-a4d488c5a9c7,VK NEW ENGLAND MANAGEMENT LLC,320 ESSEX ST,LAWRENCE,MA,01840-1411,42.700272999999996,-71.161357,978-655-5290,4133.119999999998,32
97146faa-cf56-3a7c-83d7-9902a6d48fd4,PCP199920,366 MASSACHUSETTS AVE,ARLINGTON,MA,02474-6732,42.418721999999995,-71.163912,617-852-9967,3874.7999999999984,30
e7f8d3e4-a56f-3178-964b-ce0f51326c58,PCP200248,22 FAIRWAY DR,NORTHBOROUGH,MA,01532-2072,42.323342,-71.646236,508-259-7684,3745.6399999999985,29
2d01da4e-2ffa-383a-99b9-ca54e10a8ef3,DERMCARE PHYSICIANS AND SURGEONS  LLC,33 VILLAGE SQ,CHELMSFORD,MA,01824-2712,42.597055,-71.3697,978-244-0060,3099.8399999999992,24
ef9be885-deeb-3e61-9431-3fc501d48180,PCP200573,1101 BEACON ST,BROOKLINE,MA,02446-5587,42.323853,-71.142003,617-901-9150,5812.199999999996,45
845f2bf2-99f0-38ef-80dd-620532ab7c5a,NEW ENGLAND ORTHOPAEDIC AND SPINE SURGERY LLC,40 ALLIED DR,DEDHAM,MA,02026-6146,42.246871999999996,-71.179462,617-734-2450,4003.959999999998,31
4551c430-17a5-3d2a-be3f-a65233dec649,FRANKLIN EYE CARE ASSOCIATES LLC,201 S MAIN ST,ATHOL,MA,01331-2117,42.575924,-72.229618,978-249-2020,12270.19999999999,95
80a91cf9-351e-38ae-914d-9c24b65a0928,FRANKLIN EYE CARE ASSOCIATES LLC,10 HOSPITAL DR,HOLYOKE,MA,01040-6643,42.211656,-72.642448,413-774-7016,2454.04,19
f9f7b82f-872d-3150-96ba-be72158ad755,STANLEY STREET TREATMENT AND RESOURCES  INC,386 400 STANLEY ST,FALL RIVER,MA,02720-6009,41.725351,-71.094162,508-675-1054,4003.959999999998,31
ef6cac97-f31d-3c0b-bc95-92228a4c0ebf,CROSSPOINT CLINICAL SERVICES INC,117 PARK AVE,WEST SPRINGFIELD,MA,01089-3371,42.125451,-72.649734,413-732-7677,4908.079999999997,38
523629cd-33cb-3c7e-8312-c4b04c1536a9,HEALTH IMPERATIVES INC,942 W CHESTNUT ST,BROCKTON,MA,02301-5567,42.082543,-71.024638,508-583-3005,7103.799999999995,55
749a8ec0-d289-393a-b33b-39115ba167bc,COMMUNITY MEDICAL ASSOCIATES  INC.,25 MARSTON ST,LAWRENCE,MA,01841-2310,42.700272999999996,-71.161357,,11624.39999999999,90
821df131-afca-37bc-b669-9ee6ee7d4105,LICKTEIG FAMILY EYECARE PC,870 PROVIDENCE HWY,DEDHAM,MA,02026-6806,42.246871999999996,-71.179462,781-328-0067,2712.3599999999997,21
7533082e-ead6-3a6f-8b54-f29c0fcbaf82,ICON ANESTHESIA SERVICES OF NEW ENGLAND LLC,135 LAKE ST,MIDDLETON,MA,01949-2024,42.610513,-71.007118,978-766-1150,5295.559999999997,41
dc260b27-a84a-365a-8779-f6b3254d798a,TALLMAN EYE ASSOCIATES  PC,451 ANDOVER ST,NORTH ANDOVER,MA,01845-5044,42.673909,-71.091334,978-794-8118,1808.2400000000005,15
ba087f78-98a8-3f31-8da4-2dc29c14c26e,SOLEIL PHYSICAL THERAPY AND WELLNESS  INC,1223 HANCOCK ST,QUINCY,MA,02169-4342,42.261006,-71.008988,617-376-3232,2195.7200000000003,17
89e39a4c-dc46-38e2-8853-c3d2d5e21a4a,LYNN VEIN CLINIC LLC,121 BROAD ST,LYNN,MA,01901-1629,42.474862,-70.96218499999999,617-606-9187,2066.5600000000004,16
478961ba-31a9-39eb-9d91-1a035372c1bb,GLOBAL CARE MEDICAL GROUP PC,600 CLARK RD,TEWKSBURY,MA,01876-1699,42.612088,-71.227845,978-453-8261,3874.7999999999984,30
b1488029-932f-3fe1-981a-6c31286c6d6c,PCP209809,102 PARKER ST,MAYNARD,MA,01754-2120,42.425955,-71.45625600000001,978-751-0880,9170.359999999993,71
68931484-fda0-3b7d-8c04-203a7b58d193,PCP210361,275 VARNUM AVE,LOWELL,MA,01854-2109,42.63898,-71.321141,978-458-4333,5166.399999999997,40
c9926601-f0d0-38da-9414-97e8dbe8b9b5,CHARLES RIVER MEDICAL ASSOCIATES  PC,571 UNION AVE,FRAMINGHAM,MA,01702-5855,42.307905,-71.436196,508-665-6261,3616.4799999999987,28
326cf4da-678f-3c88-b807-0231e99cca68,CHARLES RIVER MEDICAL ASSOCIATES  PC,20 HOMER AVE,ASHLAND,MA,01721-1752,42.257754999999996,-71.473526,508-881-5590,5812.199999999996,45
2a22d569-4d6b-3e37-b35e-06f0e2dffa04,PCP211448,14 LOON HILL RD,DRACUT,MA,01826-4067,42.679722999999996,-71.30068,978-934-9444,6199.679999999996,48
071b52f5-531d-3908-9642-33717720513d,PCP211664,39 HAVERHILL ST,METHUEN,MA,01844-4203,42.742751,-71.178588,978-291-8350,4262.279999999998,34
ad96c9fd-648c-375b-8db9-0de4f47696f4,PCP211702,31 CAMPUS PLAZA RD,HADLEY,MA,01035-9534,42.356491,-72.568632,,5424.719999999997,42
8462f7a4-6712-3e5d-b9cf-4200b10c3df2,NESC LPHO LLC,154 E CENTRAL ST,NATICK,MA,01760-3644,42.284822,-71.348811,781-431-0060,4262.279999999998,33
40804e41-b3a3-36d7-8586-74cd9cf79a4e,PCP212451,25 COBB RD,ASHBURNHAM,MA,01430-1210,42.648697,-71.919896,978-827-0770,2454.04,19
0982db2c-c422-3e3e-bbf5-fe4bdb5c7c67,PCP212787,20 SCHOOL ST,SOUTH DARTMOUTH,MA,02748-3815,41.661303,-70.937913,508-996-0602,6974.639999999995,54
7384fb96-e378-36d6-983d-43c7968cf6bc,PCP213579,3 WOODLAND RD,STONEHAM,MA,02180-1714,42.474208000000004,-71.097665,781-662-7477,4133.119999999998,32
62489c8c-2596-3cc2-ba4b-ba045c517135,DIGESTIVE HEALTH ASSOCIATES P.C.,91 MONTVALE AVE,STONEHAM,MA,02180-3649,42.474208000000004,-71.097665,781-438-5565,2583.2,20
66b77f43-5706-3f94-abc1-c8f1fb499a1c,NATICK EYE ASSOCIATES  PC,210 ANDOVER ST,PEABODY,MA,01960-1647,42.534279,-70.969782,508-655-8127,4778.919999999997,37
8539eb3a-9ab4-3859-acbe-22a2b105df3e,EMERALD PHYSICIAN SERVICES  LLC,1421 ORLEANS RD,HARWICH,MA,02645-2148,41.696512,-70.070113,508-778-4777,8653.719999999994,67
2bd0e13e-8d51-3533-bebb-d105f2628ead,PCP216475,203 TURNPIKE ST,NORTH ANDOVER,MA,01845-5072,42.673909,-71.091334,978-681-4505,7232.959999999995,56
16f21a35-bb71-37f2-bcc2-e732e8a7f61e,EDWARD M KENNEDY COMMUNITY HEALTH CENTER INC,19 TACOMA ST,WORCESTER,MA,01605-3516,42.269478,-71.807783,508-852-1805,6328.839999999996,49
2aa968f9-f021-32c3-8a11-2ad46896cdf3,MILTON CARDIAC TESTING  P.C.,92 HIGHLAND ST,MILTON,MA,02186-3800,42.241557,-71.082432,617-696-4600,1937.4000000000005,15
2075b030-1585-3772-8792-fa474af2c744,SOUTH SHORE WOMEN'S HEALTH  P.C.,689 BEDFORD ST,WHITMAN,MA,02382-1807,42.078974,-70.93939,781-447-4001,4003.959999999998,31
93e18a76-fa33-31ab-bd03-4433e30fab21,NORTHEAST HEALTH SERVICES LLC,39 A INDUSTRIAL PARK RD,PLYMOUTH,MA,02360-4868,41.897892,-70.62403,508-830-1444,9945.319999999992,77
5f3f1316-9911-3702-bf05-7db034c53b9d,HOLYOKE HEALTH CENTER INC.,505 FRONT ST,CHICOPEE,MA,01013-3140,42.175668,-72.572257,413-420-2222,4133.119999999998,32
